,IDENT,NAME,LATITUDE,LONGITUDE,ICAO_ID,DECLINATION
0,6TS0,TRUE,34.089220277777784,-101.74046138888887,,5.74941
1,WY47,TRUE,42.85357611111111,-106.33641499999999,,8.90491
2,WA08,Zwainz Farms,47.7134388888889,-117.91998888888891,,14.44256
3,9IN7,Zupancic Fld,39.35472222222222,-86.30694444444444,,-4.69381
4,1TE4,Zuehl,29.495509166666668,-98.15778666666668,,3.68769
5,MT08,Zortman,47.90833333333333,-108.50027777777778,,10.67467
6,60OI,Zorn Acres,41.3567175,-82.62489972222221,,-7.64691
7,1LL8,Zoomer Fld,40.788925,-87.55836166666668,,-3.94821
8,17NR,Zombie Air Force,34.783769444444445,-78.57695555555556,,-9.18619
9,II21,Zollinger Strip,41.47532666666667,-85.6947102777778,,-5.44108
10,9PS0,Zokaites,40.60895611111111,-80.03302916666667,,-9.25516
11,10OH,Zoellner,41.40282777777777,-82.62906638888889,,-7.65211
12,70TA,Zoch,31.193502777777773,-95.89373055555555,,2.39683
13,92MI,Zischke,42.861666666666665,-84.61916666666666,,-6.46793
14,98WA,Zirkle Fruit Company,46.67555555555556,-120.50638888888888,,14.85839
15,UT66,Zion Helicopters,37.17355555555555,-113.34561111111113,,10.99952
16,UT70,Zion Helicopters,37.17898055555556,-113.12252222222222,,10.92947
17,90ME,Zinck,44.523055555555544,-70.54555555555554,,-15.01162
18,NH17,Zim,42.72756666666667,-71.71761111111111,,-14.12294
19,0ID1,Ziggy's,42.64121111111111,-114.60543333333332,,12.38457
20,SN41,Ziggy Carline,37.50416666666667,-94.82666666666668,,1.60204
21,MT51,Zerbe,48.27696583333334,-105.96168027777777,,9.28019
22,ZPH,Zephyrhills Muni,28.228,-82.156,KZPH,-6.09694
23,33MN,Zenith Landing,45.98883888888889,-92.9016,,-0.32298
24,WA72,Zema Private,48.64467777777778,-117.93820555555556,,14.65646
25,5K1,Zelmer Meml Airpark Inc,39.4200475,-89.9912175,,-1.97776
26,IN23,Zeller Elev Company,37.90837555555555,-87.75835472222221,,-3.46635
27,PJC,Zelienople Muni,40.80197222222222,-80.16086111111113,KPJC,-9.20851
28,88NY,Zelazny,43.157836388888896,-78.35835583333333,,-10.82459
29,72OH,Zeigler Landing Strip,41.60449611111111,-83.86771916666666,,-6.80454
30,MI51,Zeeland Community Hosp,42.82045555555556,-85.989075,,-5.42782
31,3MI3,Zayti  Fld,42.44022222222222,-83.51586111111111,,-7.20454
32,LA68,Zaunbrecher Strip,30.315759166666666,-92.51985833333332,,0.35616
33,2MY2,Zarn,43.90741666666666,-94.27466666666666,,0.93705
34,APY,Zapata County,26.96878611111111,-99.24890833333332,KAPY,4.22646
35,50KY,Zanzibar Farm,38.129798888888885,-84.33021138888887,,-5.94595
36,2VA,Zangger Vintage Airpark,43.44995,-96.40316944444444,,2.57287
37,ZZV,Zanesville Muni,39.94444611111111,-81.89209416666667,KZZV,-7.90897
38,TOA,Zamperini Fld,33.80338286111111,-118.33960763888888,KTOA,11.67038
39,97CA,Zamora,38.79925,-121.83069444444445,,13.37026
40,6XA4,Zadow Air,29.99181666666667,-95.95451666666666,,2.45009
41,0ID7,Z X Ranch,43.23030833333333,-116.76319166666669,,13.16175
42,1FL3,Z Ranch,30.03439722222223,-82.78206944444446,,-5.93229
43,64ND,Z P Fld,46.8508275,-101.075415,,5.97124
44,CRT,Z M Jack Stell Fld,33.17833333333333,-91.88019444444444,KCRT,-0.20940
45,05AZ,Yuma Rgnl Medical Center,32.68362222222222,-114.63505833333332,,10.59245
46,2V6,Yuma Muni,40.10571047222222,-102.71443769444444,,6.66647
47,NYL,Yuma MCAS/Yuma Intl,32.656573888888886,-114.6059872222222,KNYL,10.58010
48,8CD0,Yuma District Hospital,40.12117777777778,-102.73761388888887,,6.68084
49,2CD6,Yukon,39.39485,-104.54703333333332,,7.61879
50,23AK,Yuknis,61.594080555555564,-149.31073055555558,,15.58701
51,8CA6,Yucca Valley Service Center,34.124897222222216,-116.41360277777778,,11.30107
52,L22,Yucca Valley,34.12983333333333,-116.40688888888891,,11.30038
53,NV11,Yucca Airstrip,36.945786111111104,-116.03781166666668,,11.73755
54,MYV,Yuba County,39.09777777777778,-121.56983333333334,KMYV,13.38961
55,34U,Yuba,44.83889111111112,-85.43118138888889,,-6.20826
56,WY42,Yu Ranch,44.30745555555556,-108.73679444444444,,10.29380
57,ND82,Y-Rock,48.311302777777776,-103.148025,,7.47561
58,7KS3,Youvan,37.52921361111111,-94.6960725,,1.51200
59,CO09,Youtsey,38.266668333333335,-104.28385472222222,,7.38122
60,YNG,Youngstown-Warren Rgnl,41.26158333333333,-80.68036111111111,KYNG,-8.95469
61,4G4,Youngstown Elser Metro,40.96179527777778,-80.6773263888889,,-8.90087
62,87CO,Young's Strip,39.69111111111111,-104.41555555555556,,7.57569
63,0MI6,Young's,46.387511388888896,-85.18398138888891,,-6.71295
64,3OH6,Youngpeter,40.78333333333333,-84.36777777777776,,-6.30947
65,IL55,Younglove/Otterbach,41.53555555555555,-88.99861111111113,,-2.94359
66,NV17,Youngberg Ranch,39.6732425,-119.81296916666666,,13.17520
67,WS20,Young Tactical Landing Site,43.95376666666667,-90.66410555555555,,-1.91713
68,9GA3,Young Fld,31.839609166666666,-84.48158277777777,,-5.05139
69,0AK5,Young Creek,61.35651388888889,-142.73344444444444,,17.62285
70,ID31,Young,43.71655277777778,-116.38901583333336,,13.15124
71,6LL2,Young,41.164480277777784,-90.55735611111109,,-1.71288
72,0CL0,Yosemite Hidden Lake Ranch,37.1180025,-119.91321361111113,,12.66146
73,VG04,Yorktown Power Station,37.2140325,-76.45355944444445,,-10.77890
74,7NY9,Yorktown Helipad,41.21194444444445,-73.80333333333333,,-12.87642
75,NC13,Yorks Fld,35.75377222222223,-79.66782500000002,,-8.67582
76,JYR,York Muni,40.89641638888889,-97.62407244444445,KJYR,3.47544
77,ME94,York Hospital,43.14158333333333,-70.65066944444446,,-14.63135
78,72PA,York Electro-Panel Psnl Use,40.03343,-76.66635527777778,,-11.16739
79,8OH4,York Aerodrome,40.84394888888889,-80.70257527777778,,-8.86253
80,THV,York,39.917,-76.87302777777776,KTHV,-11.02987
81,01SC,York,35.03207944444444,-81.25277777777778,,-7.57429
82,NC65,Yonder,34.559612777777765,-78.26805388888889,,-9.33369
83,33AZ,Yolo Ranch,34.79863,-112.97018722222221,,10.48214
84,DWA,Yolo County,38.579388888888886,-121.85694444444445,KDWA,13.32720
85,5IN0,Yoder Fld,41.68583333333333,-85.3738888888889,,-5.71220
86,0FD4,Yoder Fld,30.60748611111111,-85.02529166666666,,-4.55063
87,CD09,Yoder Airstrip,39.81970611111112,-104.40912583333332,,7.58364
88,SN61,Yoder Airpark,37.65724722222222,-97.62987222222222,,3.46377
89,T85,Yoakum Muni,29.31316666666667,-97.13841666666669,,3.12948
90,F98,Yoakum County,33.217194444444445,-102.83008333333332,,6.24942
91,TE64,Yoakum Community Hospital,29.30628333333333,-97.12920833333332,,3.12440
92,3PS8,Yingst,40.39581666666667,-76.74583333333334,,-11.19324
93,78K,Yes Bay Lodge,55.91630138888889,-131.80113361111108,,18.25874
94,O43,Yerington Muni,39.00541666666667,-119.15652777777778,,12.89604
95,0AK2,Yentna Bend Strip,61.72473333333333,-150.68342777777778,,15.09947
96,COD,Yellowstone Rgnl,44.520194444444435,-109.02380555555555,KCOD,10.46116
97,WYS,Yellowstone,44.688388888888895,-111.11763888888888,KWYS,11.43270
98,8M3,Yellowstone,44.83000000000001,-111.2875,,11.52816
99,65FD,Yellow Whirley Bird,30.198888888888888,-85.82833333333333,,-3.97863
100,FD93,Yellow River Airstrip,30.685468611111112,-86.74717833333334,,-3.42579
101,CRW,Yeager,38.37593361111111,-81.59300083333333,KCRW,-7.85347
102,71PA,Ybp,39.966764444444436,-76.79969166666666,,-11.08039
103,87I,Yazoo County,32.8835,-90.464,,-1.13699
104,IA05,Yaw-Hoo Fld,40.854197222222226,-95.08592777777777,,1.68609
105,16AZ,Yav'pe Ma'ta,34.50891333333333,-112.67989861111113,,10.34511
106,51AZ,Yavapai Rgnl Medical Center East,34.59185277777778,-112.33072222222222,,10.24940
107,IL29,Yates Rla,39.53300555555556,-90.21558055555555,,-1.82131
108,37TX,Yates Fld,31.321554166666665,-98.86560138888888,,4.09823
109,XS89,Yates,29.621059444444448,-98.45585027777778,,3.84916
110,01AZ,Yat,34.60805555555556,-111.8647222222222,,10.10251
111,MU88,Yarbro Fld,36.858,-90.39975833333334,,-1.46809
112,CO44,Yankee Port,39.574988333333344,-104.87553361111112,,7.80724
113,CO53,Yankee Fld,40.63470444444445,-104.99108555555556,,7.96796
114,17LS,Yankee Fld,30.60793055555556,-91.97527777777779,,-0.00439
115,A77,Yankee Creek 2,63.00186805555556,-156.36736027777778,,12.88120
116,73AK,Yankee Cove,58.59166666666667,-134.9,,18.64164
117,CT13,Yankee Airstrip,41.88343138888889,-71.81618166666667,,-13.89372
118,6W4,Yanceyville Muni,36.39977777777778,-79.39269444444443,,-8.94399
119,NR07,Yancey Ems Medical,35.91702777777777,-82.33266666666667,,-6.99729
120,1TX0,Yancey Creek Ranch,31.026952777777772,-98.35305277777779,,3.81097
121,HDN,Yampa Valley,40.48119444444445,-107.21766666666667,KHDN,9.07290
122,4C3,Yalesville,41.49188888888889,-72.81116666666667,,-13.38772
123,1CT2,Yale New Haven Hospital,41.30445,-72.93673055555556,,-13.29252
124,D20,Yale,43.111051388888896,-82.78671805555554,,-7.85526
125,YAK,Yakutat,59.50332333333333,-139.66026805555555,PAYA,18.05949
126,2Y3,Yakutat,59.577694444444454,-139.74994444444442,,18.05395
127,45WA,Yakima Valley Meml Hospital,46.59406388888889,-120.54663888888888,,14.84852
128,YKM,Yakima Air Trml/McAllister Fld,46.56816666666667,-120.54405555555556,KYKM,14.84201
129,0AA1,Yakataga,60.080848611111115,-142.49549444444446,,17.50041
130,69MN,Yaggie Pvt,46.27773722222222,-96.42951333333332,,2.49611
131,D22,Yacht Haven,46.02479444444445,-83.75251388888887,,-7.74593
132,8XA7,Yacht Club,31.693652777777782,-98.105875,,3.68138
133,XS22,Y O Ranch,30.204087777777772,-99.67367111111112,,4.50353
134,TT31,Y Bar Ranch,28.539280555555557,-98.80069722222223,,4.01818
135,09TA,Xwind Farm,33.72441666666667,-96.29830555555556,,2.61796
136,77XA,Xl Ranch,29.826002777777774,-94.51102222222221,,1.60116
137,99WY,Xingu Airstrip,44.8458,-107.27674444444445,,9.62941
138,52AZ,X-1 Ranch Upper Headquarters,35.383331944444436,-113.30076138888887,,10.68095
139,8NE5,X1 Ranch,41.79056361111111,-98.72980472222223,,4.23603
140,AZ97,X Bar 1 Ranch (Lower),35.348329166666666,-113.68883027777778,,10.79146
141,22VA,Wythe County Community Hospital,36.95489444444445,-81.0978472222222,,-7.95691
142,CT15,Wysocki Fld,41.94537472222222,-72.47758499999999,,-13.63065
143,25KS,Wyrill Farming,39.683343888888885,-99.12842194444444,,4.46017
144,PN45,Wyoming Valley Medical Center,41.25778611111111,-75.80820555555555,,-11.87825
145,WY57,Wyoming Medical Center,42.8476,-106.30838611111109,,8.88955
146,WY43,Wyoming Game and Fish,43.484722222222224,-110.76166666666668,,11.08822
147,6G4,Wynkoop,40.36506222222222,-82.49571805555556,,-7.56655
148,13NJ,Wyeth-Ayerst Research,40.36510694444445,-74.5829336111111,,-12.32708
149,NY47,Wyeth Ayerst,41.0775,-74.02472222222222,,-12.74329
150,5IN4,Wyckoff Airstrip,41.48337361111111,-86.95002722222223,,-4.49903
151,CT48,Wychwood Fld,41.43676527777777,-71.92535055555554,,-13.75288
152,8TS7,Wyatt 3-Rivers,32.244865277777784,-97.72613861111112,,3.47008
153,GA23,Wyatt,34.57833333333333,-85.38388888888889,,-4.76622
154,6IN3,Wyandotte,40.34916666666667,-86.7638888888889,,-4.48627
155,76OH,Wyandot Meml Hospital,40.84153888888889,-83.28026944444444,,-7.09729
156,56D,Wyandot County,40.883368583333336,-83.31453155555555,,-7.07997
157,PA26,Wxkw,40.636208055555564,-75.4846275,,-11.92248
158,TS22,Wwd Farms,33.13698888888889,-101.46626666666668,,5.55379
159,N82,Wurtsboro-Sullivan County,41.597138888888885,-74.45830555555554,,-12.64205
160,14NJ,Wuerkers New Acres Farm,39.00900166666667,-74.88850416666669,,-11.91511
161,MI91,Wsr,42.05833333333333,-85.16180555555556,,-5.92899
162,TN60,Wsmv-Tv,36.14116944444445,-87.86197166666666,,-3.20952
163,7GA1,Wsb-Tv,33.79927166666666,-84.38555555555557,,-5.35000
164,NJ27,Wrnj,40.84648777777778,-74.80405444444446,,-12.31367
165,36OH,Wright's Fld,40.190348055555546,-81.97402388888891,,-7.89490
166,FFO,Wright-Patterson AFB,39.82597052777777,-84.04610283333334,KFFO,-6.39248
167,TX93,Wright Ranch,32.16681083333333,-97.83364111111109,,3.53136
168,MD11,Wright Fld,39.27705388888889,-76.06272416666667,,-11.35424
169,LHW,Wright AAF (Fort Stewart)/Midcoast Rgnl,31.887819444444442,-81.56265499999998,KLHW,-6.94618
170,65J,Wrens Meml,33.22277777777778,-82.3845,,-6.59734
171,2V5,Wray Muni,40.10039694444445,-102.2411725,,6.39164
172,MU13,Wray Airfield,40.46913194444445,-94.7164652777778,,1.43259
173,68A,Wrangell,56.46632500000001,-132.38001805555555,,18.36545
174,WRG,Wrangell,56.48433333333333,-132.36983333333333,PAWG,18.37015
175,83PN,Wpxi-Tv Television Hill,40.463318888888885,-80.00463666666667,,-9.24656
176,PA63,Wpxi-Tv Evergreen Road,40.49536111111111,-80.01066666666667,,-9.24858
177,FL51,Wptv,26.714080555555554,-80.06391944444444,,-7.18023
178,91FD,Wpec Inc,26.761363888888887,-80.06969722222222,,-7.18308
179,22MT,Wounded Buck Ranch,48.12809166666667,-114.16980833333334,,13.28850
180,4MD9,Worthington Valley,39.48055555555555,-76.76055555555557,,-11.01059
181,OTG,Worthington Muni,43.65505555555556,-95.57919444444444,KOTG,1.94906
182,9MO4,Worth,39.979160555555566,-94.87385805555556,,1.56261
183,6TS1,Worrell,31.1779475,-98.07308333333332,,3.65694
184,0VA4,Worley Fld,36.950139722222225,-79.87947805555554,,-8.72988
185,3CL3,World Trade Center,33.76784166666667,-118.19977222222221,,11.63417
186,2OR9,World Trade Center,45.5170625,-122.67370694444445,,15.01553
187,WRL,Worland Muni,43.96288888888889,-107.95052777777778,KWRL,9.86268
188,83KY,Works,38.98111111111111,-84.54472222222222,,-5.91393
189,OA10,Workman's Landing,39.008611111111115,-83.90916666666669,,-6.36711
190,OR41,Workman Airpark,45.207621111111116,-122.6692577777778,,14.94305
191,IA68,Workman Airfield,41.609905555555564,-90.85891111111113,,-1.52406
192,ORH,Worcester Rgnl,42.26713888888889,-71.8756111111111,KORH,-13.95423
193,42MA,Worcester Medical Center,42.26636388888889,-71.79756388888889,,-13.98590
194,11PA,Worcester,40.19194444444444,-75.31333333333333,,-11.92346
195,96KY,Woosley Fld,37.55222222222222,-87.27138888888891,,-3.77907
196,94KY,Woosley,37.500555555555565,-87.32944444444445,,-3.73163
197,5D5,Woolsey Meml,45.164346861111106,-85.57547811111111,,-6.15762
198,NE06,Woolf Brothers,42.82499833333333,-98.42535916666668,,4.03625
199,9OR8,Wooldridge Agstrip,44.732621388888894,-123.05564916666668,,14.89805
200,19TX,Woody Mc Clellan Ranch,31.23822833333333,-97.51418055555555,,3.34152
201,VG40,Woody Fld,36.88682222222222,-79.863925,,-8.72960
202,1R4,Woodworth,31.126352777777782,-92.50128888888891,,0.30308
203,OH03,Woodworth,41.79227333333333,-81.05815249999998,,-8.80327
204,IA89,Woodward State Hospital,41.871525,-93.9140277777778,,0.77858
205,CDN,Woodward Fld,34.28358333333333,-80.56486111111111,KCDN,-7.90293
206,64CT,Woodstock,41.92148638888889,-71.95285083333333,,-13.84606
207,FL86,Woodstock,26.582575555555554,-82.09842527777778,,-5.91984
208,40LA,Woodsland Plantation,32.345981111111115,-91.96957583333334,,-0.10460
209,90OH,Woodsfield,39.765350277777785,-81.13510722222223,,-8.38558
210,63II,Woods Fld,39.50505,-86.03026249999998,,-4.91552
211,VA50,Woods Farm Airstrip,37.715142500000006,-77.30247833333333,,-10.39202
212,FA38,Woods and Lakes Airpark,29.123590277777783,-81.8870277777778,,-6.38073
213,9OK8,Woods Acres,36.075609,-97.90616683333334,,3.62177
214,53W,Woodruff Lake,43.554602777777774,-84.97896388888887,,-6.31962
215,M60,Woodruff County,35.27190555555556,-91.27033055555556,,-0.74660
216,VG52,Woodridge Fld,37.83916666666667,-78.82166666666666,,-9.52338
217,98MO,Woodliff Airpark,38.786161388888885,-90.94236,,-1.22349
218,5IL8,Woodley 2,41.5225,-89.65555555555555,,-2.43834
219,82KY,Woodledge Farm,38.28340333333333,-85.48190388888891,,-5.15112
220,1NY0,Woodlawn Beach State Park,42.78811416666667,-78.84947777777778,,-10.43998
221,W27,Woodland State,45.89881833333333,-122.73727444444445,,15.11534
222,8AL8,Woodland Clinic,33.373038888888885,-85.39678333333335,,-4.61865
223,MU89,Woodland Airstrip,38.911925,-91.03619444444445,,-1.16439
224,3WN7,Woodland Airstrip,44.15,-87.61777777777776,,-4.37165
225,IS65,Woodlake Landing,41.63836333333333,-88.64452083333335,,-3.22719
226,O42,Woodlake,36.39877777777778,-119.10680555555555,,12.35066
227,OK14,Woodlake,36.83522222222223,-98.65772222222223,,4.09927
228,WH0,Woodhawk,47.77944444444446,-109.07861111111109,,10.95769
229,20VA,Woodford Airpark,38.08235638888889,-77.48831611111113,,-10.34913
230,4NK4,Woodford Airfield,42.827222222222225,-76.02583333333334,,-12.10033
231,MU27,Woodfield Airpark Inc,37.46810138888889,-93.92938166666669,,0.98541
232,JY17,Woodcrest Farms Airstrip,39.47222222222222,-75.2775,,-11.80362
233,TS34,Woodcreek-Shell,29.789116944444448,-95.60855583333333,,2.25210
234,34AR,Woodbridge Fld,35.58111111111111,-90.3852777777778,,-1.38298
235,6MS1,Woodbridge,32.45583333333334,-89.96972222222223,,-1.43737
236,3Y4,Woodbine Muni,41.73609944444445,-95.68361722222221,,2.09201
237,OBI,Woodbine Muni,39.219138888888885,-74.79475,KOBI,-12.00113
238,MD78,Woodbine,39.38343638888889,-77.07025833333333,,-10.81898
239,TX72,Wood Triple D,30.379097222222228,-97.1947125,,3.15835
240,WI12,Wood Tick Strip,44.016816666666664,-89.20251666666668,,-3.09183
241,1MT3,Wood Strip,46.55805555555556,-112.4125,,12.29561
242,12XA,Wood Farm Airfield,32.03933333333333,-102.34858333333332,,5.93649
243,6TS6,Wood Crest Ranch,31.04157472222223,-96.20162722222223,,2.58103
244,85OH,Wood County Hospital,41.37656111111111,-83.66670833333333,,-6.91109
245,JDD,Wood County - Collins Fld,32.74219444444444,-95.49647222222221,KJDD,2.13291
246,1G0,Wood County,41.391000000000005,-83.63013888888888,,-6.93977
247,WV73,Wood County,39.338138888888885,-81.44288888888889,,-8.10921
248,7MO1,Wood Acres,39.4731,-91.70903472222223,,-0.71130
249,8WI0,Wood,43.74386527777778,-89.81429166666666,,-2.56939
250,2CN4,Wonderful Pistachios & Almonds,35.66638888888889,-119.89638888888891,,12.35771
251,6OR6,Wonder,42.39150333333333,-123.53450972222224,,14.43827
252,2KY5,Womstead Fld,38.375,-83.15472222222223,,-6.79804
253,LS23,Womens's and Children's Hospital,30.153405555555555,-92.046275,,0.06639
254,3NC9,Womble Fld,35.878163888888885,-79.08702222222222,,-9.04863
255,1LA0,Woman's Hospital,30.38483888888889,-91.03913888888887,,-0.58994
256,XS15,Womack Ranch,30.77101111111111,-99.90035055555555,,4.63807
257,75TE,Womack Farm,31.74738416666667,-97.24611888888887,,3.18914
258,30MI,Wolverton's Fld,41.859212777777785,-86.32779111111111,,-5.02314
259,6S3,Woltermann Meml,45.630523888888895,-109.23921499999999,,10.72394
260,NC17,Wolf's Den,34.980164722222234,-76.30796916666667,,-10.49839
261,IL01,Wolford's,40.79253888888889,-90.438185,,-1.76865
262,IG06,Wolfelt,40.48805555555556,-86.85194444444444,,-4.43892
263,3AK0,Wolfe Point,55.3625,-131.70944444444444,,18.12946
264,IN65,Wolfe Fld,41.691439166666655,-85.59554166666666,,-5.54788
265,1OK3,Wolfe Fld,34.57607777777778,-97.81414444444445,,3.54682
266,XA32,Wolfe Fld,30.91147222222222,-97.1712777777778,,3.14484
267,3T2,Wolfe Air Park,29.47908333333333,-95.32655555555556,,2.09404
268,9AK8,Wolf Track,61.624742222222224,-149.68223,,15.45695
269,8WI5,Wolf River Landing Strip,44.51549594444445,-88.54163952777779,,-3.69066
270,54M,Wolf River,35.054023611111106,-89.58002638888887,,-1.90423
271,9NR4,Wolf Pit,35.35500000000001,-80.43138888888889,,-8.14181
272,OK59,Wolf Mountain,35.022320555555545,-94.70439388888887,,1.58272
273,4AK6,Wolf Lake,61.639375,-149.28395138888888,,15.60049
274,26W,Wolf Lake,42.209722222222226,-84.23166666666667,,-6.64207
275,2TN7,Wolf Creek,35.804444444444435,-84.41583333333334,,-5.57852
276,7ND1,Wolberg's Private,47.03733888888889,-102.76094722222223,,7.13854
277,GGW,Wokal Fld/Glasgow-Valley County,48.21244444444446,-106.61480555555555,KGGW,9.66174
278,WN77,Wnp-2 Plant Support Facility,46.4643025,-119.34113083333332,,14.53884
279,66G,Wm 'Tiny' Zehnder Fld,43.31435833333333,-83.7100638888889,,-7.22316
280,2JY3,Wm B  Kessler Meml Hospital,39.631413888888886,-74.77276944444445,,-12.08988
281,43KY,Wlky-Tv Studios,38.26393888888889,-85.71052777777777,,-4.98509
282,65CO,Wkr,40.520833333333336,-104.96677777777779,,7.94429
283,0FL7,Wkmg-Tv,28.59408333333333,-81.41988888888889,,-6.60242
284,38NJ,Wjrz Radio,39.69928583333333,-74.23430694444444,,-12.36775
285,6MO4,Wixted,38.04169666666667,-93.78354499999999,,0.86143
286,03IL,Wix,41.40225527777777,-87.81671333333333,,-3.83044
287,OSH,Wittman Rgnl,43.98449113888889,-88.55693486111109,KOSH,-3.60165
288,1NE2,Witthuhn,41.32500555555556,-99.91706583333334,,5.01407
289,5XS5,Wits End Ranch,32.54277777777778,-95.70861111111113,,2.26656
290,74WI,Witi Tv Studio Building,43.18111972222222,-87.96342111111113,,-3.95606
291,22OG,Withrotor,42.27543611111111,-120.39356944444445,,13.85229
292,ME41,Witherspoons Landing Strip,44.15258,-68.87642083333333,,-15.47668
293,SUA,Witham Fld,27.181699166666668,-80.22129333333334,KSUA,-7.14798
294,0WI7,With Wings and A Halo,44.13359611111111,-88.49927777777779,,-3.66886
295,4IA7,Witcombe Fld,42.47192888888889,-92.49518972222221,,-0.33957
296,4MI7,Witbeck Aerodrone,43.81335888888889,-84.82168611111109,,-6.48545
297,4WI0,Wissota,44.933295,-91.27237416666668,,-1.53919
298,65WA,Wissler's,46.840377777777775,-122.91624472222223,,15.36723
299,6AZ2,Wisky Ranch/Chevlon,34.61680555555556,-110.62796111111109,,9.68687
300,94WA,Wishkah River Ranch,47.084813888888895,-123.77377777777778,,15.56380
301,6L5,Wishek Muni,46.24962916666666,-99.53965833333334,,4.85663
302,95WI,Wisersky,42.93611111111111,-89.1297222222222,,-3.00980
303,WSM,Wiseman,67.40510694444447,-150.1208777777778,,15.60881
304,02T,Wise River,45.77002777777778,-112.98047222222222,,12.38084
305,XA57,Wise Rgnl Health System,33.218319444444454,-97.59693333333333,,3.40303
306,7S4,Wisdom,45.591589722222224,-113.45922555555555,,12.53173
307,IWI,Wiscasset,43.96141666666667,-69.71255555555554,KIWI,-15.16027
308,CO06,Wirth Fld,40.51361111111111,-103.91194444444444,,7.37267
309,WA01,Wirkkala,46.356215,-123.81459361111109,,15.39686
310,8AL9,Wiregrass Hospital,31.049623055555557,-85.89160277777779,,-4.02980
311,35MN,Wipline,44.815521944444434,-93.01354694444444,,-0.12374
312,09Y,Wipline,44.82755555555556,-93.00872222222222,,-0.12864
313,NK37,Winthrop University Hospital,40.74176777777778,-73.64401777777779,,-12.85412
314,NH67,Winterwood,42.97842083333334,-71.00950222222222,,-14.45879
315,3Y3,Winterset Muni,41.36280555555556,-94.02119444444445,,0.88492
316,77F,Winters Muni,31.947194194444453,-99.98585005555556,,4.72153
317,8MI9,Winters Fld,42.305,-84.10666666666665,,-6.75012
318,0II9,Winters,39.53421361111111,-86.57722194444445,,-4.51885
319,2MN1,Winter Strip,45.04606972222222,-95.46446583333334,,1.79855
320,GIF,Winter Haven Rgnl,28.062916666666666,-81.75330555555556,KGIF,-6.32639
321,60FD,Winter Haven Hospital,28.028805555555554,-81.72506111111113,,-6.33948
322,48NH,Winter Harbor,43.59388888888889,-71.26138888888889,,-14.50887
323,SD55,Winter Airfield,44.31583333333333,-98.27333333333333,,3.93070
324,SNK,Winston Fld,32.693388888888876,-100.95047222222223,KSNK,5.26246
325,10D,Winsted Muni,44.95385,-94.06539027777778,,0.70372
326,68NC,Winstead '76',36.399584166666656,-79.12806972222222,,-9.10500
327,INW,Winslow-Lindbergh Rgnl,35.02190972222222,-110.7225157777778,KINW,9.77992
328,5A6,Winona-Montgomery County,33.46498777777778,-89.73021750000001,,-1.67565
329,ONA,Winona Muni-Max Conrad Fld,44.079609888888896,-91.71162988888891,KONA,-1.09506
330,02D,Winona Lake,41.22305555555555,-85.83055555555555,,-5.30237
331,MN39,Winona Health Services,44.033875,-91.62328888888888,,-1.16085
332,F89,Winnsboro Muni,32.15300694444444,-91.69855694444445,,-0.27130
333,F51,Winnsboro Muni,32.938845555555545,-95.27886083333333,,1.99434
334,TE14,Winns,30.401311111111113,-97.96001222222222,,3.58669
335,7S2,Winnett,46.97666666666667,-108.365,,10.47470
336,IA04,Winneshiek  Medical Center,43.29413333333334,-91.77454722222221,,-0.96976
337,0MN0,Winner's Landing,44.79691111111111,-92.98410083333331,,-0.14569
338,ICR,Winner Rgnl,43.38948466666667,-99.84121441666666,KICR,5.02038
339,WMC,Winnemucca Muni,40.89661111111111,-117.80588888888887,KWMC,12.96764
340,77NC,Winnabow,34.152114722222215,-78.10554944444443,,-9.36726
341,0L6,Winn Parish Medical Center,31.92321888888889,-92.64570444444445,,0.35641
342,OR54,Winn,44.59845472222222,-123.20676444444445,,14.89152
343,15FD,Winkler Helistop,26.48098333333333,-81.896375,,-6.03158
344,4XA8,Winkler County Meml Hospital,31.849936111111113,-103.09091944444445,,6.28159
345,INK,Winkler County,31.779805555555555,-103.20169444444444,KINK,6.32896
346,OR74,Winkle Bar,42.70150083333333,-123.80508083333334,,14.54854
347,3FL6,Wink Tv,26.65083333333333,-81.85555555555554,,-6.07900
348,9S7,Winifred,47.55538888888889,-109.38670972222224,,11.08071
349,AK09,Wingsong Estates,64.04960666666666,-145.50232416666663,,17.11466
350,FA50,Wings-N-Wheels,29.36136166666667,-82.14981638888891,,-6.24665
351,CO58,Wings N Things Airpark & Museum,40.10581722222222,-104.9547,,7.89864
352,FL07,Wings N Sunsets LLC,30.25022555555556,-82.92401805555556,,-5.86889
353,73F,Wings For Christ Intl Flight Academy,31.62377638888889,-97.0224975,,3.05892
354,0WN9,Wings For Christ,48.430463888888895,-119.48605833333332,,15.02385
355,96FL,Wings Fld,29.24247,-82.54538305555555,,-5.98212
356,LOM,Wings Fld,40.137555555555565,-75.26513888888887,KLOM,-11.93768
357,2TN2,Wings Fld,35.22165000000001,-89.19017777777779,,-2.19005
358,CT42,Wings Ago Airstrip,41.853966666666665,-73.27564166666667,,-13.25784
359,RI07,Wing-Over Farm,41.578991944444454,-71.14171083333333,,-14.09515
360,4OH6,Wingfoot Lake Airship Operations,41.00950111111111,-81.35788666666666,,-8.45592
361,MD01,Wingfield,38.143458611111114,-76.35661472222222,,-10.99112
362,FA37,Wing South Airpark,26.116584361111112,-81.70228727777777,,-6.10344
363,MU66,Winfield Manor,39.029841666666655,-90.82326388888887,,-1.32988
364,54AR,Winfield Airpark,35.39285555555556,-93.75870555555555,,0.94428
365,WI58,Winfield,42.52224138888889,-88.02785972222222,,-3.81507
366,14NY,Windy's,40.797777777777775,-73.43098888888889,,-12.96414
367,TX34,Windy Tales,32.84795833333334,-97.98430555555555,,3.62616
368,5CO0,Windy Plains,38.829722222222216,-102.29888888888887,,6.34460
369,IN51,Windy Knoll,40.14003722222222,-86.1524902777778,,-4.91100
370,GA83,Windy Hill,33.54678333333333,-83.80545805555555,,-5.70634
371,02LS,Windy Hill,30.14833333333333,-91.9190277777778,,-0.01380
372,6FD0,Windy Acres,29.56579361111111,-82.8687325,,-5.81807
373,WV62,Windwood Fly-In Resort,39.05533888888888,-79.43081111111111,,-9.35746
374,65TE,Windwood Farm,33.56816666666667,-96.39716666666668,,2.67978
375,4NJ0,Windward Farms,40.44927083333333,-75.01766944444444,,-12.12576
376,23NH,Windswept,43.13027777777778,-72.015,,-14.09522
377,43OI,Windswept,41.19866305555555,-83.7007675,,-6.85697
378,4NC3,Windsor Farms,35.227513888888886,-78.81726055555555,,-9.11077
379,VT37,Windsor Armory,43.470905,-72.40370194444445,,-14.01300
380,79VA,Windsor,36.80678833333333,-76.73801305555557,,-10.55530
381,45WI,Windsong Farm,44.99996444444446,-92.28352194444444,,-0.72789
382,NH69,Windsock Village,43.82625555555556,-71.18482777777778,,-14.59554
383,4WA4,Windsock,48.54149,-122.88740083333334,,15.76939
384,1MO2,Windsoar,38.545666666666655,-93.50761111111113,,0.64495
385,2GA5,Windrift Aerodrome,33.04179333333333,-84.43214444444446,,-5.22732
386,RQE,Window Rock,35.65205555555556,-109.06738888888887,KRQE,9.25677
387,MWM,Windom Muni,43.91341166666667,-95.1094,KMWM,1.58012
388,MN53,Windom Area Hospital,43.87835777777778,-95.11321888888888,,1.58474
389,85XA,Windmillcreek,33.309549999999994,-97.31116111111109,,3.23378
390,TA21,Windmill Hill,33.01817833333333,-97.11917805555555,,3.11793
391,5TN2,Windmill Hill,36.37451944444445,-82.3899138888889,,-7.02416
392,56OK,Winding Creek,35.80360833333333,-97.57987777777777,,3.41614
393,72WI,Windhaven,44.04610361111111,-87.99287305555555,,-4.05858
394,0CT2,Windham Hospital,41.71681111111111,-72.22556111111112,,-13.68802
395,IJD,Windham,41.74402777777778,-72.18022222222223,KIJD,-13.71295
396,47NC,Windemere,35.138055555555546,-78.82277777777777,,-9.09391
397,IS57,Wind Rose Farm,42.17974555555556,-88.63277777777779,,-3.30243
398,66ID,Wind Ridge,45.87666666666666,-116.17916666666667,,13.52762
399,OKV,Winchester Rgnl,39.143527777777784,-78.14444444444446,KOKV,-10.15406
400,BGF,Winchester Muni,35.17753361111111,-86.06616638888889,KBGF,-4.36519
401,2VA4,Winchester Medical Center,39.19543333333333,-78.19200000000002,,-10.13521
402,38IS,Winchester,40.58198583333333,-91.358485,,-1.05582
403,41NK,Winchell Mountain,41.94777777777777,-73.51805555555555,,-13.16703
404,6WI1,Winch Airfield,44.49523916666666,-89.91262694444444,,-2.58532
405,FD77,Wimauma Air Park,27.711975277777782,-82.28286861111111,,-5.95128
406,LL52,Wilts,41.161138888888885,-88.93911111111113,,-2.94631
407,IL76,Wilt Rla,41.53375,-89.5525,,-2.51861
408,E40,Wilson's,35.652076666666666,-81.35786388888889,,-7.59582
409,79OK,Wilson Ranch,36.313675,-96.08570555555555,,2.46390
410,51TS,Wilson N Jones Rgnl Medical Center,33.637219444444455,-96.6243,,2.81886
411,9NY1,Wilson Meml Rgnl Medical Center,42.114358333333335,-75.95769444444444,,-11.97944
412,NR17,Wilson Medical Center,35.717422222222226,-77.94435458333334,,-9.69888
413,W03,Wilson Industrial Air Center,35.77040694444445,-77.96979138888891,,-9.69245
414,57OR,Wilson Helispot,45.342777777777776,-122.69666666666667,,14.97905
415,3TN6,Wilson Fld,35.092558333333336,-89.28375277777779,,-2.11386
416,0AL9,Wilson Creek,34.85,-87.6325,,-3.24248
417,5W1,Wilson Creek,47.41848333333333,-119.10908333333332,,14.69634
418,C48,Wilson Bar Usfs,45.39666666666667,-115.48333333333332,,13.20673
419,27GA,Wilson Airstrip,33.65844194444444,-85.00994361111111,,-4.91285
420,4F8,Wilson,33.443194444444444,-93.05430555555556,,0.55322
421,GA03,Wilson,34.86952138888889,-85.1996752777778,,-4.92655
422,62IS,Wilson,40.087534999999995,-87.90753138888891,,-3.60092
423,44IL,Wilson,41.53925,-88.32486111111109,,-3.45994
424,4IN4,Wilson,39.975277777777784,-87.1802777777778,,-4.12908
425,2KS3,Wilson,38.83826944444445,-98.48553333333334,,4.02944
426,2PA9,Wilson,40.20010666666667,-75.29962138888888,,-11.93214
427,48PN,Wilson,39.9042,-76.91420000000002,,-11.00434
428,43WA,Wilson,47.76232055555555,-122.15679222222221,,15.45017
429,4TS2,Wilshire Place,29.85717,-95.50633,,2.19089
430,44L,Wilshire Area,34.04725,-118.34288888888888,,11.71931
431,9U1,Wilsall,46.04954583333333,-110.68495416666669,,11.46383
432,ILM,Wilmington Intl,34.271138888888885,-77.9028888888889,KILM,-9.50190
433,DE39,Wilmington Hospital,39.751111111111115,-75.55055555555555,,-11.71490
434,ILN,Wilmington Air Park,39.427916666666654,-83.79211111111111,KILN,-6.51198
435,68KS,Willys Lake,38.19685,-98.182575,,3.82487
436,WLW,Willows-Glenn County,39.51575588888889,-122.21727544444445,KWLW,13.59094
437,45AZ,Willow Valley,34.913305555555546,-114.58007777777777,,10.97102
438,1AZ8,Willow Springs Ranch,35.29582999999999,-114.37301555555555,,10.98068
439,1H5,Willow Springs Meml,36.989618055555546,-91.95407638888891,,-0.37434
440,2X2,Willow Spb,61.743444444444435,-150.05969444444446,,15.33022
441,YIP,Willow Run,42.24002777777777,-83.53088888888887,KYIP,-7.15793
442,49MN,Willow Ridge,44.67191166666667,-92.82631444444445,,-0.26094
443,19GA,Willow Pond Aviation Inc,33.42372666666667,-84.49992694444444,,-5.22790
444,AL71,Willow Point,32.80373777777777,-85.98051916666668,,-4.16125
445,58KY,Willow Island Airpark,38.121658333333336,-85.33255555555556,,-5.23652
446,22AR,Willow Creek Women's Hospital,36.135,-94.18527777777778,,1.20623
447,NV99,Willow Creek Trading Post,39.036758388888884,-114.82994086111113,,11.78697
448,10WY,Willow Creek Ranch,43.42333333333333,-106.82361111111109,,9.22360
449,9NC7,Willow Creek,35.369722222222215,-80.44,,-8.13857
450,WI77,Willow Creek,43.20695083333334,-88.16036972222223,,-3.80548
451,42AK,Willow Conocophillips,70.11088888888888,-152.12975,,14.70407
452,2WV5,Willow Bend,37.54583333333333,-80.53388888888887,,-8.41111
453,UUO,Willow,61.75418888888889,-150.0517388888889,PAUO,15.33399
454,3MT9,Willow,46.47156250000001,-113.49246111111113,,12.70906
455,BDH,Willmar Muni-John L Rice Fld,45.11702777777778,-95.12933333333332,KBDH,1.53283
456,X60,Williston Muni,29.354605000000006,-82.47056361111113,,-6.04366
457,73FL,Williston Meml Hospital,29.38302555555555,-82.45482611111113,,-6.05722
458,XWA,Williston Basin Intl,48.259785,-103.75055444444445,KXWA,7.87674
459,LS78,Willis-Knighton Med Ctr Temp Groundlevel,32.48701944444444,-93.7782972222222,,1.05923
460,6II2,Willis Site Nr 2,39.73337694444445,-85.72331055555556,,-5.17022
461,5TE8,Willis N Clark,35.76115361111111,-100.75180916666666,,5.29831
462,15LA,Willis- Knighton South Hospital,32.40291666666666,-93.79869444444445,,1.07520
463,FA44,Willis,26.548126111111113,-80.21476833333334,,-7.06724
464,4II8,Willis,39.72226611111111,-85.7166438888889,,-5.17356
465,7MN8,Willis,48.069722222222225,-96.27944444444445,,2.28474
466,23WN,Willie's,45.91105555555556,-91.6285,,-1.36136
467,3MI7,Willie Run,42.829195833333344,-83.36855333333331,,-7.38224
468,IPT,Williamsport Rgnl,41.24166666666667,-76.92180555555557,KIPT,-11.26308
469,66PA,Williamsport Hospital & Medical Center,41.24744722222222,-77.01527222222222,,-11.21128
470,SC86,Williamsport Airpark,34.86190694444445,-82.58135555555555,,-6.68761
471,SDC,Williamson-Sodus,43.2345975,-77.11946388888889,KSDC,-11.57965
472,AL97,Williamson Farm,30.645119444444447,-87.67056388888889,,-2.81205
473,3KY6,Williamson Arh Hospital,37.676666666666655,-82.29638888888887,,-7.27678
474,6LL0,Williamson,39.32028888888889,-88.42526666666667,,-3.12946
475,28LL,Williamson,39.46031694444445,-88.86840749999998,,-2.81556
476,OI73,Williamson,39.712559999999996,-83.8038147222222,,-6.54697
477,BYL,Williamsburg-Whitley County,36.794999166666656,-84.1995175,KBYL,-5.85593
478,JGG,Williamsburg-Jamestown,37.23917472222223,-76.71609611111111,KJGG,-10.63932
479,CKI,Williamsburg Rgnl,33.717222222222226,-79.85697222222221,KCKI,-8.26007
480,91FA,Williams Road Helistop,26.41773333333333,-81.82447499999998,,-6.06769
481,1CO2,Williams Ranch,38.162490277777785,-108.34036083333334,,9.29167
482,4PN6,Williams Grove,40.15009111111111,-77.03303305555555,,-10.98430
483,6LA6,Williams Flying Service,32.218206944444454,-91.8681847222222,,-0.16391
484,24IN,Williams Flying Fld,39.23638888888889,-85.69305555555556,,-5.12495
485,38AR,Williams Fld,36.11882777777778,-94.46821388888891,,1.39711
486,11FL,Williams Fld,30.04301777777778,-81.8809336111111,,-6.50373
487,5MI7,Williams Fld,42.36106944444445,-84.42481944444445,,-6.52578
488,0MT1,Williams Fld,47.4975,-112.39083333333332,,12.45605
489,TX99,Williams Fld,34.00675194444445,-102.98660888888891,,6.38208
490,0G6,Williams County,41.46730555555556,-84.50677777777777,,-6.31719
491,GAX,Williams Auxiliary Airfield 6,32.88525,-112.81630555555556,KGAX,10.12131
492,89WA,Williams Airpatch,48.270658888888896,-122.01930666666668,,15.54543
493,30LL,Williams Airpark,39.75421277777778,-90.36540111111113,,-1.72939
494,00CL,Williams Ag,39.427188888888885,-121.76342777777779,,13.49467
495,CN12,Williams,39.16350222222222,-122.13164111111112,,13.49995
496,3GE2,Williams,33.82083333333334,-84.12805555555555,,-5.52523
497,IL52,Williams,40.43921055555556,-91.14403194444445,,-1.20531
498,MO98,Williams,38.71306527777778,-94.58495444444445,,1.39933
499,1WI1,Williams,43.93276083333333,-88.704555,,-3.47700
500,LHV,William T Piper Meml,41.13577777777777,-77.42230555555554,KLHV,-10.95519
501,6CL3,William Shells Company,34.38016666666667,-118.86848055555555,,11.89368
502,M90,William Robert Johnston Muni,36.758611111111115,-120.37138888888887,,12.67459
503,OWP,William R Pogue Muni,36.17527777777777,-96.15183333333334,KOWP,2.50814
504,CLM,William R Fairchild Intl,48.12019444444446,-123.49969444444444,KCLM,15.76958
505,HOU,William P Hobby,29.645416666666666,-95.27888888888887,KHOU,2.06214
506,06FA,William P Gwinn,26.90815305555555,-80.32841402777777,,-7.04678
507,SN31,William Newton Meml Hospital,37.24635277777778,-96.98250555555555,,3.04335
508,W78,William M Tuck,36.70937241666667,-78.8483374722222,,-9.32281
509,8CO2,William Leon Schawo,40.6708175,-104.20828194444445,,7.54909
510,M08,William L Whitehurst Fld,35.21513888888889,-89.04325,,-2.29219
511,09NC,William Irving Lewis,35.32932500000001,-79.030025,,-8.99893
512,DDH,William H Morse State,42.89119444444445,-73.24608333333333,KDDH,-13.50426
513,01IS,William E Koenig,39.016158333333344,-90.31816861111109,,-1.70052
514,32MI,William Beaumont Hospital,42.51507777777777,-83.19416666666667,,-7.45044
515,1CL0,William Archibald,34.104669444444454,-117.799725,,11.61476
516,IS33,Willhoit,39.045601944444435,-89.84065277777779,,-2.05523
517,2DE2,Willaview,38.85503333333333,-75.57220555555557,,-11.53634
518,62OH,Willard Fld,39.695831944444436,-82.4674277777778,,-7.47555
519,73S,Willard Fld,47.235533888888895,-117.04374972222222,,14.08106
520,8G1,Willard,41.03875044444445,-82.72456480555556,,-7.52182
521,01WA,Willapa Harbor,46.663154722222224,-123.81210611111109,,15.46924
522,2S9,Willapa Harbor,46.697620555555545,-123.82338305555555,,15.47914
523,OG38,Willamette Valley Medical Center,45.19899444444444,-123.16633333333334,,15.02402
524,4LL7,Willadae Farms,42.000028055555546,-88.66675361111112,,-3.25399
525,OKC,Will Rogers World,35.39307402777778,-97.60076172222222,KOKC,3.42530
526,W36,Will Rogers Wiley Post Meml,47.49982166666667,-122.21928888888891,,15.39946
527,TN74,Will A Hildreth Farm,35.800076666666655,-84.31936666666667,,-5.64400
528,55WA,Wilkinson Ranch,46.52805555555555,-120.76138888888887,,14.87996
529,MO43,Wilkins,38.968516666666666,-91.44348333333332,,-0.87029
530,TA50,Wilkeys,32.175986111111115,-95.63551388888891,,2.22712
531,AVP,Wilkes-Barre/Scranton Intl,41.338472222222215,-75.72338888888889,KAVP,-11.94010
532,WBW,Wilkes-Barre Wyoming Valley,41.2973075,-75.85224333333333,KWBW,-11.86292
533,PN75,Wilkes-Barre General Hospital,41.25837777777778,-75.86681666666667,,-11.84707
534,49NC,Wilkes Rgnl Medical Center,36.158813888888886,-81.15756944444446,,-7.79894
535,UKF,Wilkes County,36.22360211111111,-81.09860630555555,KUKF,-7.84647
536,61IN,Wilkerson's,38.71366972222223,-85.60357388888889,,-5.12019
537,32KS,Wilkens,38.593071388888895,-100.61347583333333,,5.34664
538,6NC2,Wilhelm,35.51125027777777,-80.55812055555555,,-8.08513
539,2OG3,Wiley's,45.430952500000004,-122.64953777777778,,14.99138
540,BRW,Wiley Post-Will Rogers Meml,71.28486111111111,-156.76858333333334,PABR,12.47601
541,PWA,Wiley Post,35.534163888888884,-97.6470527777778,KPWA,3.45525
542,OR13,Wiley Creek,44.50283333333334,-119.37108333333332,,14.11113
543,6LL4,Wildy Fld,38.26754916666667,-89.89177000000002,,-1.94883
544,XA91,Wildwood,30.53333333333333,-94.43805555555555,,1.53491
545,5MI1,Wilds Fld,43.25138888888889,-85.54277777777777,,-5.83875
546,25OK,Wildlife Ranch,34.31444444444444,-97.99555555555555,,3.65240
547,6WA5,Wilding Farm,48.575614111111115,-122.94361636111113,,15.78738
548,1MN4,Wildhurst Pines,44.91751944444446,-93.60820277777779,,0.34283
549,OG53,Wildhorse Valley,42.48794166666666,-118.60835555555555,,13.49558
550,IN60,Wilderness Fld,40.01781527777778,-86.1602675,,-4.88875
551,24M,Wilderness Airpark,43.24474638888889,-85.71170888888891,,-5.70881
552,80OR,Wilderness,42.364318333333344,-120.96581583333334,,13.98743
553,05K,Wilder Runway LLC,60.19848083333333,-154.32304916666666,PAKX,13.60150
554,3LA1,Wilder,30.55853277777777,-92.80431333333333,,0.52287
555,6.00E+05,Wilder,44.4330475,-97.55816,,3.40725
556,3T8,Wildcat Canyon,31.67855555555556,-97.36255555555556,,3.25635
557,52PA,Wildcat,40.763145,-76.00465111111113,,-11.67225
558,46TE,Wildcat,31.84972222222223,-101.06,,5.28017
559,W23,Wild Rose Idlewild,44.19775527777778,-89.21789472222223,,-3.10389
560,MN35,Wild Rice Lake,46.899938055555545,-92.1621325,,-1.03547
561,SC61,Wild Irish Rose,34.617932222222215,-80.15173277777778,,-8.20839
562,5WA7,Wild Hair,45.71651138888889,-120.98451222222221,,14.74098
563,31KY,Wild Blue,38.110555555555564,-84.32222222222222,,-5.94889
564,OR29,Wild Billy,42.49281666666667,-121.32015,,14.08440
565,ND78,Wilcox Farm,47.03997833333333,-97.53703638888891,,3.33613
566,1MT9,Wilcox,45.78916666666667,-108.68444444444445,,10.47380
567,31LL,Wilco,41.934166666666655,-89.365,,-2.70740
568,H05,Wilburton Muni,34.920206944444445,-95.39390277777778,,2.03321
569,II9,Wilbur Wright Birthplace,39.95416666666667,-85.24333333333334,,-5.55049
570,2S8,Wilbur,47.75338888888889,-118.74391666666666,,14.67748
571,5XS3,Wilber Farms,29.76966583333333,-94.26129694444445,,1.45283
572,TS30,Wilbarger General Hospital,34.15920833333333,-99.31597777777776,,4.42160
573,F05,Wilbarger County,34.22566666666667,-99.28375,,4.40506
574,65OH,Wiita Farms,41.071720833333345,-81.75124166666667,,-8.20043
575,7MI6,Wightman,43.11030444444446,-84.12636111111111,,-6.87829
576,30IN,Wigent,41.209213333333345,-85.45803472222222,,-5.57686
577,IN90,Wietbrock,41.25975722222222,-87.48142361111111,,-4.06666
578,35TE,Wieser Angus Ranch,30.2521,-98.82448611111113,,4.05583
579,8CO5,Widner,38.833871944444454,-107.89228611111112,,9.18174
580,MO83,Widmark,40.253076666666665,-92.95492777777778,,0.15644
581,JY31,Wide Sky Airpark,39.44678055555556,-75.31324722222222,,-11.78041
582,PN94,Wiconisco Fire Company,40.569750000000006,-76.69595000000002,,-11.25518
583,NH51,Wickson,44.15593611111111,-71.15686944444445,,-14.68871
584,1PS9,Wicker & Wings Aerodrome,40.403434722222215,-75.37045555555554,,-11.93554
585,E25,Wickenburg Muni,33.97062933333333,-112.79508980555555,,10.29220
586,F14,Wichita Valley,33.947610472222216,-98.61614766666666,,4.01218
587,ICT,Wichita Dwight D Eisenhower Ntl,37.649944444444436,-97.43305555555555,KICT,3.33666
588,08IN,Whybrew Fld,39.916663888888884,-85.84710833333331,,-5.10485
589,65WN,Whoopy Hollow Aerodrome,42.676448111111114,-89.93798513888889,,-2.34632
590,31CO,Whomble,40.02148333333333,-102.175075,,6.34807
591,29WI,Whittlesey Cranberry Company,44.32551805555556,-90.02735222222222,,-2.47143
592,OK31,Whittington Ranch,33.77854166666667,-97.13145833333333,,3.12778
593,IEM,Whittier,60.77716944444445,-148.71965277777778,PAWR,15.71754
594,OK84,Whittaker Army,36.29648305555556,-95.30580194444444,,1.95155
595,ND54,Whitman Fld,47.12915694444445,-99.73038722222222,,5.00432
596,70WA,Whitman Community Hospital,46.86949166666667,-117.37600555555555,,14.10062
597,NDZ,Whiting Fld NAS South,30.69857305555556,-87.01440861111111,KNDZ,-3.25062
598,NSE,Whiting Fld NAS North,30.72247222222222,-87.02390305555555,KNSE,-3.24676
599,1VG2,Whithall Farm,38.12766666666667,-76.68916666666667,,-10.80629
600,B16,Whitfords,43.080617361111116,-76.53821105555555,,-11.87516
601,23NR,Whitfield's East,35.560555555555545,-76.23472222222222,,-10.62829
602,AL14,Whitfield Rgnl Hospital,32.505555555555546,-87.83638888888889,,-2.87760
603,4W4,Whitfield Farms,36.283472777777774,-79.07890138888888,,-9.11654
604,6TX4,Whitfield,34.3434,-101.54433611111112,,5.66006
605,NM55,Whitewater Mesa Ranch,33.36277777777778,-108.86361111111113,,8.87560
606,CD75,Whitewater,38.89998305555555,-108.48397805555555,,9.44990
607,38LA,Whiteville,30.784361944444445,-92.18234555555556,,0.11775
608,SQI,Whiteside County/Jos H Bittorf Fld,41.742833333333344,-89.67627777777778,KSQI,-2.44619
609,63OH,White's,39.702839722222215,-83.09388888888887,,-7.04361
610,47TE,Whites,28.85165472222223,-96.49747277777777,,2.77607
611,E24,Whiteriver,33.81060833333333,-109.98574361111113,,9.34457
612,51WT,Whiterik Fld,48.01041666666666,-118.36202777777777,,14.63259
613,SC99,Whiteplains,33.963861111111115,-81.35829166666666,,-7.35689
614,SZL,Whiteman AFB,38.73030555555556,-93.54786388888887,KSZL,0.66525
615,WHP,Whiteman,34.25932527777777,-118.41343305555556,KWHP,11.77609
616,60TN,Whitehurst Fld,35.2681,-88.99911999999999,,-2.32763
617,NEN,Whitehouse NOLF,30.349495,-81.86698944444444,KNEN,-6.55231
618,OR09,Whitehorse Ranch,42.33563916666667,-118.25752361111113,,13.37719
619,OL20,Whitehorn Cove,35.997321666666664,-95.25884944444445,,1.92612
620,08NC,Whiteheart Farm,36.06763694444445,-80.46561194444446,,-8.22636
621,LS00,Whitehead,30.67546277777777,-91.11427277777777,,-0.56062
622,79WI,Whitehall Fire Department,44.367313888888894,-91.33272777777779,,-1.42786
623,4GE3,Whitehall,32.49933055555556,-83.18327222222223,,-5.98451
624,LA36,Whitehall,30.07980555555556,-90.893275,,-0.66311
625,58S,Whitefish,48.40802,-114.29957611111112,,13.39369
626,3TS1,White Wings,30.011369444444448,-98.04050277777776,,3.62793
627,TA97,White Wing Ranch,29.63745888888889,-95.96884444444444,,2.46405
628,JY27,White Willow,40.92823333333333,-74.84396666666666,,-12.31029
629,7S6,White Sulphur Springs,46.49563088888889,-110.91185944444445,,11.63873
630,VG15,White Stone Family Practice,37.64418333333333,-76.39518333333334,,-10.88364
631,VG13,White Stone,37.64865,-76.38756666666667,,-10.88855
632,7Q7,White River Muni,43.56166416666667,-100.74180555555556,,5.63016
633,AR24,White River Medical Center,35.767119444444454,-91.63543611111112,,-0.52436
634,3VA7,White Post,39.06260666666667,-78.0913875,,-10.17091
635,ID94,White Pine Flats Ranch LLC,46.776666666666664,-116.69138888888891,,13.87534
636,6CL2,White Pine,41.33044444444445,-120.09744444444445,,13.58657
637,MI20,White O'morn,42.25263888888889,-84.00744444444446,,-6.81367
638,VA11,White Oak Stand,36.8078925,-81.70123027777778,,-7.54187
639,IL33,White Oak Resources,38.170666666666655,-88.60069444444444,,-2.88143
640,OH87,White Oak Fld,40.3389625,-82.7723125,,-7.37040
641,VA78,White Oak Farm,37.07155277777778,-76.87446388888887,,-10.52371
642,44TX,White Oak,30.21048111111111,-99.09476555555555,,4.19931
643,21AZ,White Mountain Lake,34.35226194444444,-109.97011,,9.41544
644,WMO,White Mountain,64.68919444444445,-163.41275000000005,PAWM,9.65014
645,61AZ,White Mountain,34.369722222222215,-109.69722222222221,,9.31893
646,FD95,White Fld,29.974944444444446,-82.9250277777778,,-5.83365
647,FA36,White Farms,29.51512777777777,-82.87292361111109,,-5.80904
648,36KS,White Farms,37.475370833333336,-95.34364444444445,,1.95419
649,TN88,White County Community Hospital,35.94910833333333,-85.47636666666666,,-4.86424
650,MCX,White County,40.710193888888895,-86.76679388888887,KMCX,-4.53190
651,MU23,White Cloud Flying Fld,39.03059416666667,-92.39184888888892,,-0.18281
652,42C,White Cloud,43.559847222222224,-85.77415277777777,,-5.71414
653,NK68,White Birch,42.05142,-75.3166,,-12.30541
654,6OK0,White,35.89138888888889,-97.95888888888891,,3.65195
655,69TS,White,30.998789444444448,-97.75585055555555,,3.47712
656,39LA,Whitaker,30.58833333333333,-92.23055555555555,,0.15901
657,MS43,Whitaker,32.55180527777777,-90.83038,,-0.86952
658,60OR,Whitaker,43.42650722222222,-123.27979777777777,,14.63432
659,GA80,Whispering Pines,33.78233027777777,-83.98879972222224,,-5.61354
660,22AK,Whiskey Lake,61.98881388888889,-151.39116111111107,,14.85318
661,94E,Whiskey Creek,32.76201972222222,-108.20837972222222,,8.55280
662,48AR,Whirlwind Aviation,35.48375,-90.84090277777777,,-1.05834
663,SD65,Whipple Ranch,45.437738888888894,-96.9997997222222,,2.96732
664,OR34,Whippet Fld,44.322338611111114,-121.43337583333334,,14.51458
665,TN77,Whifferdill,36.321833333333345,-87.15066666666668,,-3.73156
666,NUW,Whidbey Island NAS /Ault Fld/,48.351840027777776,-122.65595886111113,KNUW,15.68284
667,01WN,Whidbey General Hospital,48.21316666666666,-122.68566666666668,,15.65473
668,W10,Whidbey Air Park,48.01751225,-122.4377275,,15.56314
669,11AZ,Whetstone,31.683701944444447,-110.2900775,,9.14968
670,H28,Whetstone,48.999989722222224,-112.79258083333332,,12.90443
671,6IN2,Whelen,39.493611111111115,-85.64861111111112,,-5.19189
672,ID47,Whelan's,43.59710333333334,-116.78208416666666,,13.24167
673,CT01,Whelan Farms,41.6662075,-73.18900166666667,,-13.25652
674,HLG,Wheeling Ohio County,40.17501138888888,-80.64626833333334,KHLG,-8.77875
675,GTB,Wheeler-Sack AAF,44.055611111111105,-75.71989444444445,KGTB,-12.55438
676,MA14,Wheeler's Point,42.63926166666667,-70.68032305555556,,-14.50365
677,T59,Wheeler Muni,35.451083333333344,-100.19991666666668,,4.97177
678,HHI,Wheeler AAF,21.481444444444442,-158.03783333333334,PHHI,9.48632
679,IG05,Wheeler,41.18976333333333,-86.60695583333332,,-4.71701
680,2NK4,Wheelabrator Westchester,41.27731611111111,-73.94041638888889,,-12.82518
681,ETH,Wheaton Muni,45.78050608333334,-96.54379797222221,KETH,2.60531
682,HWQ,Wheatland County At Harlowton,46.448611111111106,-109.85277777777776,KHWQ,11.14075
683,23VA,Wheatland,37.55708916666666,-78.62000833333333,,-9.59761
684,56NC,Wheat Fld,35.20666666666667,-82.03194444444446,,-7.09523
685,DC08,Whc,38.92886111111111,-77.01663888888889,,-10.76619
686,8TA1,Whatley Flying Service,28.478056388888888,-96.76192722222223,,2.92756
687,ARM,Wharton Rgnl,29.254277777777773,-96.15438888888887,KARM,2.57653
688,25MD,Whalen Fld,39.16753888888889,-75.8402111111111,,-11.45267
689,OH30,Whalen,38.993055555555564,-84.17027777777777,,-6.18088
690,96Z,Whale Pass Seaplane Float Harbor Facility,56.116310555555565,-133.12171527777778,,18.24394
691,IL70,Wgn-Tv,41.94833333333333,-87.69333333333334,,-3.99597
692,31GA,Wgcl-Tv,33.787352777777784,-84.40105277777778,,-5.33815
693,2PS4,Wgal-Tv,40.03704194444444,-76.33773749999997,,-11.34901
694,FL70,Wfla-Tv 8,27.94388888888889,-82.46166666666667,,-5.86923
695,81AR,Wfk,35.91920833333333,-90.7297125,,-1.16618
696,WA85,Weyerhaeuser,47.298155555555546,-122.29789944444444,,15.36618
697,4SC7,Wexford Landing,33.58972222222222,-81.5025,,-7.21351
698,CAD,Wexford County,44.27533333333334,-85.41891666666669,KCAD,-6.11327
699,46OH,Wetzl,41.10366888888889,-80.82647166666666,,-8.82850
700,WV20,Wetzel County Hospital,39.68118888888888,-80.8486972222222,,-8.55980
701,08A,Wetumpka Muni,32.52733333333333,-86.33102777777779,,-3.89537
702,OK92,Wetumka Hospital,35.233421666666665,-96.2386175,,2.57100
703,90CO,Wetlands Ranch,39.97347222222223,-107.62216666666666,,9.20124
704,1MN0,Wetherbee Farm,46.043570277777775,-96.54618111111112,,2.59704
705,29MN,Wetenkamp,46.028293055555565,-96.36284277777777,,2.45446
706,CL50,Westwood Gateway,34.04778722222222,-118.44507972222223,,11.74068
707,D17,Westwinds,38.75847222222223,-108.14847222222221,,9.28536
708,TE83,Westwind Ranch,28.9208,-99.75615,,4.51325
709,3TX4,Westwind Helicopters,29.327097222222218,-95.05933333333333,,1.94131
710,0NK2,Westwind Farm,42.98340833333334,-74.01623777777776,,-13.16552
711,7WA3,Westwind,48.886111111111106,-122.32861111111109,,15.75224
712,UT42,Westwater,39.14666666666667,-109.145,,9.76506
713,WA83,Westsound/Wsx,48.61788,-122.95268222222221,,15.79919
714,CL54,Westside Towers,34.033102777777785,-118.45128888888891,,11.73905
715,AL13,Westrock - Mahrt Mill,32.17237444444444,-85.02881916666666,,-4.72777
716,AZ29,Westridge Mall,33.47559777777778,-112.22376499999999,,10.03729
717,72K,Westport Auxiliary,37.604222222222226,-97.35886111111112,,3.28839
718,71K,Westport,37.647694444444454,-97.38369444444444,,3.30469
719,3MA5,Westport,41.543159444444434,-71.03531805555555,,-14.12829
720,2NH2,Westport,42.854875,-71.47372222222222,,-14.24990
721,12NK,Westport,44.158386111111106,-73.43290444444446,,-13.72425
722,4F1,Westport,36.22141666666667,-96.3465,,2.63395
723,14S,Westport,46.89695083333334,-124.10074527777779,,15.56784
724,JAQ,Westover Fld Amador County,38.376801666666665,-120.79391027777777,KJAQ,13.09468
725,CEF,Westover ARB/Metro,42.19401497222222,-72.53478430555555,KCEF,-13.66095
726,NH63,Weston Street,42.86675416666667,-71.2179775,,-14.35278
727,OR56,Weston Ranch,44.37166666666667,-121.09305555555555,,14.45849
728,49NY,Westmoreland,41.05567222222222,-72.3604861111111,,-13.49092
729,48KY,Westlake Rgnl Hospital,37.097194444444455,-85.29535,,-5.13164
730,92CA,Westlake Farms,36.120785277777784,-119.88846611111113,,12.45001
731,D64,Westhope Muni,48.913076388888896,-101.03372222222221,,5.99759
732,5NK3,Westhampton Beach,40.802319444444436,-72.66287222222223,,-13.30865
733,FL63,Westgate Villas Helipad,28.331455555555554,-81.5933361111111,,-6.46063
734,23MA,Westford Regency,42.56314722222222,-71.43145166666667,,-14.19952
735,CT74,Westford Airstrip,41.95065222222223,-72.18146611111112,,-13.75744
736,46WI,Westfields Hospital,45.117752777777774,-92.55418611111112,,-0.52076
737,BAF,Westfield-Barnes Rgnl,42.15794444444445,-72.71586111111111,KBAF,-13.57434
738,9NY2,Westfield Meml Hospital,42.329558333333345,-79.57086666666666,,-9.88713
739,I72,Westfield,40.04892638888889,-86.1577675,,-4.89478
740,UT22,Western Surgery Center,41.755277777777785,-111.82076944444445,,11.23673
741,ID48,Western Spur,47.92879333333333,-116.71102944444445,,14.12836
742,0AZ2,Western Sky Airpark,33.778055555555554,-113.64166666666668,,10.50941
743,BFF,Western Nebraska Rgnl/William B Heilig Fld,41.87402777777777,-103.59563888888887,KBFF,7.30270
744,MU60,Western Missouri Medical Center,38.766830555555565,-93.721825,,0.78751
745,MD65,Western Maryland Health System,39.64689722222222,-78.7322,,-9.89241
746,OR38,Western Helicopter Services,45.07937500000001,-122.92589166666669,,14.95679
747,RHP,Western Carolina Rgnl,35.195229722222216,-83.86303861111111,KRHP,-5.87658
748,25KY,Western Baptist Hospital,37.07416666666667,-88.62583333333332,,-2.75621
749,22AZ,Western Arizona Rgnl Medical Center,35.11135833333333,-114.55429166666666,,10.99900
750,06WN,Western Airpark,46.92498472222222,-122.55303888888888,,15.32406
751,WST,Westerly State,41.34963297222223,-71.80341683333333,KWST,-13.78431
752,RI23,Westerly Hospital,41.36239166666667,-71.82230833333331,,-13.77931
753,2ND1,Westerlind,47.492498055555565,-100.69985666666668,,5.72019
754,AZ20,Westcor Home Office,33.59254166666667,-111.97848027777779,,9.97916
755,7NK8,Westchester Medical Center,41.084902777777785,-73.8053361111111,,-12.84901
756,HPN,Westchester County,41.066953055555565,-73.70756611111112,KHPN,-12.89123
757,TS24,Westchase,29.736340555555557,-95.54744333333332,,2.21747
758,63GE,Westbrook,32.04735833333333,-84.74006388888887,,-4.90494
759,07ME,Westbrook,43.73833333333334,-70.33916666666666,,-14.88807
760,74CO,Westberg-Rosling Farms,40.047205277777785,-104.20939583333332,,7.49614
761,WWR,West Woodward,36.438,-99.52266666666668,KWWR,4.61257
762,TN64,West Wind Airpark,35.54626666666667,-84.52630555555554,,-5.47025
763,MN23,West Wind,48.453611111111115,-93.60111111111112,,0.00339
764,2WV6,West Virginia State Police,40.053055555555545,-80.72472222222223,,-8.70583
765,76AZ,West Valley Medical Center,33.46131111111111,-112.35276111111109,,10.07480
766,ID80,West Valley Hospital,43.654125,-116.69585833333332,,13.22843
767,48WA,West Valley,46.5625,-120.77666666666669,,14.89117
768,6NY4,West Township,42.70035361111111,-74.1551288888889,,-13.03338
769,7XA0,West Texas Va Health Care System,32.231997222222226,-101.47153055555556,,5.50919
770,6TN6,West Tennessee Healthcare Milan Hospital,35.91345555555555,-88.75400277777777,,-2.55712
771,3MD6,West St Mary's,38.18901472222222,-76.44689611111113,,-10.94997
772,XS75,West Ranch,30.45638888888889,-98.48972222222223,,3.87808
773,79WT,West Ranch,47.09100083333333,-120.5894025,,14.97252
774,DE21,West Pvt,38.517335,-75.16546305555556,,-11.68523
775,7CO8,West Pueblo,38.363333333333344,-104.73802777777777,,7.62358
776,07MA,West Pond,41.9170475,-70.70948055555556,,-14.33151
777,KWP,West Point Village,57.77010944444446,-153.54894805555554,,13.73761
778,OR45,West Point,44.197068611111106,-123.05592055555556,,14.77487
779,UNO,West Plains Rgnl,36.878423055555565,-91.90267444444444,KUNO,-0.40397
780,PS99,West Penn Township,40.74786888888889,-75.93297972222223,,-11.70766
781,PN80,West Penn Hospital,40.460792083333345,-79.94669250000001,,-9.28323
782,WV38,West Parkersburg,39.26535277777778,-81.58595888888887,,-8.00180
783,44AK,West Papoose Lake Airpark,61.533444444444434,-150.10244444444444,,15.29750
784,7FL5,West Palm Beach Police Station,26.713991666666665,-80.05784166666666,,-7.18387
785,PA21,West Middlesex,41.16533472222222,-80.50256999999999,,-9.05374
786,BIV,West Michigan Rgnl,42.74277777777778,-86.10783333333332,KBIV,-5.32493
787,AWM,West Memphis Muni,35.135055555555546,-90.23444444444445,KAWM,-1.45522
788,9I3,West Liberty,37.914433333333335,-83.25194305555556,,-6.66362
789,TS35,West Liberty,30.05833333333333,-94.97805555555556,,1.87378
790,18TA,West Kerr Ranch,30.136314166666665,-99.74367361111109,,4.53806
791,5NJ9,West Jersey Hospital,39.86289166666667,-74.96016666666667,,-12.04004
792,4LA7,West Jefferson Medical Center,29.89289166666667,-90.09507777777776,,-1.16291
793,29TS,West Houston Medical Center,29.72856333333333,-95.59438916666666,,2.24505
794,IWS,West Houston,29.818194444444448,-95.67261111111112,KIWS,2.28893
795,3CA5,West Hollywood Sheriff's Helistop,34.08459166666667,-118.38349722222223,,11.73518
796,0LA0,West Hackberry,30.00854583333333,-93.40015611111113,,0.91872
797,28IL,West Grove,42.09724888888889,-89.41927611111113,,-2.68405
798,43MI,West Gladstone,45.859131111111104,-87.11680388888887,,-5.06025
799,CTJ,West Georgia Rgnl - O V Gray Fld,33.631696444444444,-85.1522641388889,KCTJ,-4.81361
800,GA33,West Georgia Medical Center,33.031419444444445,-85.0571972222222,,-4.80798
801,4U7,West Fork Lodge,45.86225,-114.21775,,12.86287
802,FL24,West Florida Rgnl Medical Center,30.51653888888889,-87.21967777777779,,-3.09694
803,09LS,West Feliciana Sheriff's Office,30.825116666666666,-91.38467777777778,,-0.39578
804,LA37,West Feliciana Parish Hospital,30.7834,-91.36714444444445,,-0.40448
805,D54,West Fargo Muni,46.900380555555564,-96.91852222222221,,2.85555
806,2CD4,West Divide,39.43055555555555,-107.62305555555555,,9.13462
807,UT9,West Desert Airpark,40.243268055555546,-112.09205277777777,,11.08916
808,PN82,West Coplay,40.67428333333333,-75.5051,,-11.91942
809,67PA,West Company,41.1667475,-76.91635333333333,,-11.25092
810,50TE,West Columbia,29.148055555555555,-95.64108333333334,,2.28418
811,OH11,West Chester Hospital,39.35829311111111,-84.36906138888888,,-6.09313
812,LS37,West Calcasieu Cameron Hospital,30.228413888888888,-93.36899166666666,,0.89003
813,OL02,West Buttercreek,45.665277777777774,-119.38611111111112,,14.37116
814,VT56,West Burke Aerodrome,44.613108888888895,-71.9809288888889,,-14.47682
815,Y31,West Branch Community,44.24481694444446,-84.17980861111111,,-7.05140
816,MS37,West Bolivar Flying Service,33.65344583333333,-90.98899444444444,,-0.83530
817,3FD8,West Boca Medical Center,26.356325,-80.20025277777778,,-7.05032
818,ETB,West Bend Muni,43.42216666666666,-88.12791666666666,KETB,-3.86116
819,AA01,West Beaver,61.584961111111106,-149.84653055555555,,15.39443
820,09AK,West Beaver,61.58936111111112,-149.84733333333338,,15.39451
821,1FL5,West Bay Creek,30.30214166666667,-85.86437777777778,,-3.96628
822,LA98,West Bay,29.13189444444445,-89.38810749999999,,-1.55723
823,6CO8,West Area Pwr Admin Ops Center,38.4660975,-107.87339583333332,,9.12718
824,JRA,West 30th St,40.75454583333333,-74.0070838888889,KJRA,-12.68539
825,62NR,West,35.429444444444435,-80.4502777777778,,-8.14092
826,4X4,Wessington Springs,44.061888888888895,-98.53219444444444,,4.11681
827,8KS6,Wesley Medical Center,37.695316666666656,-97.297375,,3.24888
828,9FD8,Wesh-Tv Channel 2,28.61109444444445,-81.38597777777778,,-6.62563
829,NE36,Werner Ranch Airfield,41.54925,-100.04896666666666,,5.10671
830,NE56,Werner,41.341388888888886,-96.395,,2.61285
831,15NJ,Werner,40.42510805555556,-74.09958555555555,,-12.57470
832,NH56,Wentworth-Douglass Hospital,43.21441352777778,-70.87414286111111,,-14.56555
833,NH96,Wentworth Aerodrome,43.87344444444446,-71.90472222222223,,-14.32047
834,0NY8,Wenskoski Fld,42.997296111111105,-74.24540999999999,,-13.05782
835,MI37,Wenning Landing Area,42.75558805555556,-82.55824694444446,,-7.95006
836,VT40,Wenlock Crossing,44.77699361111111,-71.75148138888889,,-14.61369
837,ENV,Wendover,40.71872527777778,-114.02867361111113,KENV,11.84188
838,CPF,Wendell H Ford,37.38736111111111,-83.26161111111111,KCPF,-6.58130
839,49G,Wend Valley,42.57795,-84.9090125,,-6.20308
840,57VA,Wemmering,36.71915,-80.54731388888891,,-8.27366
841,15G,Weltzien Skypark,41.02818472222222,-81.79814722222223,,-8.16063
842,NA73,Welstad Farms Airstrip,48.56390861111111,-101.00043055555555,,5.96488
843,6R1,Welsh,30.241906583333336,-92.83074661111112,,0.55474
844,ELZ,Wellsville Muni/Tarantine Fld,42.10952777777778,-77.98997222222222,KELZ,-10.82126
845,3GE6,Wellstar Douglas Hospital,33.738486111111115,-84.73228333333334,,-5.10953
846,7PN7,Wellspan York Hospital Alternate,39.9439,-76.74233333333333,,-11.10802
847,94PN,Wellspan York Hospital,39.94482222222222,-76.7182138888889,,-11.12163
848,WV46,Wellsburg,40.267847777777774,-80.61729694444443,,-8.81424
849,N38,Wellsboro Johnston,41.727989388888886,-77.3954375277778,,-11.09186
850,LWL,Wells Muni/Harriet Fld,41.117111111111114,-114.92213888888891,KLWL,12.20034
851,68Y,Wells Muni,43.74122083333334,-93.777175,,0.56131
852,6IA6,Wells Fld,40.75683333333333,-93.4015027777778,,0.45760
853,6MS2,Wells Farm,31.98386111111111,-90.33536111111113,,-1.15929
854,CL27,Wells Fargo-El Monte,34.070147222222225,-118.071875,,11.66664
855,65IN,Wells County Sheriff's Dept,40.73393555555555,-85.1960813888889,,-5.69867
856,35C,Wells,43.12836138888889,-85.50530722222223,,-5.84651
857,MO85,Wells,37.25171555555556,-92.83378416666666,,0.23043
858,3NE3,Wells,40.500011111111114,-99.31704166666668,,4.60166
859,VA56,Wells,37.00348305555556,-76.82745944444444,,-10.53845
860,EGT,Wellington Muni,37.324995722222226,-97.38835597222223,KEGT,3.30604
861,FL39,Wellington Medical Center,26.6375675,-80.20449,,-7.08540
862,FD38,Wellington Aero Club,26.64670833333333,-80.29506666666667,,-7.03200
863,GA29,Wellers Landing,33.15623333333333,-84.43103500000002,,-5.24180
864,30WA,Weller Canyon,46.3148625,-118.17828916666667,,14.20558
865,MI78,Weller,42.9166925,-85.78336722222222,,-5.60002
866,38I,Weller,40.09116944444445,-83.68937222222223,,-6.68656
867,6Y8,Welke,45.721290861111115,-85.51974247222222,,-6.31031
868,MN43,Welia Health,45.87440305555555,-93.28994583333332,,0.00523
869,35KY,Welcome Fld,36.7111525,-86.63610694444445,,-4.13871
870,I25,Welch Muni,37.41855277777777,-81.53093055555556,,-7.74555
871,IL00,Welch,40.099722222222226,-87.57444444444445,,-3.85103
872,3NC1,Welborn Farm,36.20541444444445,-80.65839666666669,,-8.12505
873,ID10,Weitz,43.594819444444454,-116.83252222222221,,13.25566
874,JY24,Weiss Farm,40.918116666666656,-74.860625,,-12.29982
875,9AL3,Weiss Dam,34.13226111111111,-85.79540833333333,,-4.43383
876,00NY,Weiss Airfield,42.89586111111111,-77.49516111111113,,-11.28454
877,24KS,Weiss Acres,37.524327777777785,-97.60318611111109,,3.44555
878,9IL6,Weishaupt,40.51309416666667,-89.36731416666666,,-2.55112
879,S87,Weiser Muni,44.20466666666667,-116.96052777777778,,13.41737
880,40WV,Weirton Medical Center,40.39377866666667,-80.52740252777778,,-8.89557
881,WV42,Weirton - Steubenville,40.39784555555556,-80.62201833333333,,-8.83444
882,2LL2,Weihler,41.31475694444444,-90.55207861111113,,-1.73108
883,4IS9,Weidner,39.085861111111114,-89.958875,,-1.97159
884,63MN,Weideman Intl,47.094374444444455,-91.60017527777777,,-1.53248
885,2NJ3,Weidel/Pvt/,40.34038444444445,-74.85433083333331,,-12.18674
886,EDG,Weide AHP (Aberdeen Proving Ground),39.39187361111111,-76.29112388888889,KEDG,-11.25223
887,0NJ4,Weichert Headquarters,40.940655,-74.46154305555554,,-12.50316
888,TE13,Weiblen,29.40023333333333,-98.8875277777778,,4.07529
889,4MO1,Wehrman,39.01263888888889,-91.41947222222224,,-0.89104
890,00XA,Weeski Ranch,30.2240375,-96.01415277777778,,2.48132
891,XS14,Weese Intl,32.96944444444445,-96.07055555555556,,2.48356
892,2TE3,Weems Farm,33.29416666666666,-96.92805555555556,,3.00373
893,NH36,Weeks Medical Center,44.4865,-71.554,,-14.61746
894,8TX8,Weeks,27.36087194444445,-98.17944944444444,,3.69001
895,EUF,Weedon Fld,31.951305555555553,-85.12891666666665,KEUF,-4.63589
896,XA45,Weedfalls,33.021166666666666,-95.93083333333334,,2.39722
897,O46,Weed,41.48080555555556,-122.45452777777778,,14.06296
898,70FA,Wee Bee Sky Ranch,27.562175,-80.59936944444443,,-6.96966
899,67AR,Wedington Woods,36.09777777777778,-94.3075,,1.28973
900,NM14,Wedding Cake Ranch,36.97913888888889,-103.1985,,6.70860
901,UT36,Wecco,37.31664805555555,-113.31745,,11.01510
902,NUI,Webster NOLF,38.146,-76.42847222222224,KNUI,-10.95247
903,IN9,Webster Lake,41.32512222222223,-85.68252222222223,,-5.42765
904,ME91,Webster Fld,43.67507972222222,-70.49560833333334,,-14.81628
905,EBS,Webster City Muni,42.43641352777777,-93.86896702777777,KEBS,0.71309
906,5IS6,Webster,41.1055925,-89.83899361111109,,-2.25445
907,1II0,Webster,39.57671361111112,-85.58775166666666,,-5.24745
908,7TA5,Weber Ranch,30.587145555555555,-96.63413861111113,,2.83716
909,1WA1,Weber Point,47.64245277777778,-122.08368611111109,,15.40787
910,ME03,Webber Jones,45.336161944444456,-69.05087444444446,,-15.73332
911,ME71,Webb Lake,44.66978055555556,-70.42815,,-15.09231
912,MN00,Webb Lake,46.9605,-94.425,,0.84017
913,4KY5,Weavers Run,38.02861111111111,-85.89,,-4.82682
914,53KS,Weaver Ranch,38.11095277777777,-97.42971111111113,,3.33686
915,SC94,Weaver Fld,33.88944444444444,-79.50638888888889,,-8.49832
916,MT54,Weaver,48.24385055555555,-114.24429472222221,,13.33985
917,52U,Weatherby Usfs,43.8251388888889,-115.33136111111112,,12.84674
918,7WI6,Weatherbee Fld,43.47053972222222,-89.35900666666666,,-2.89641
919,6TN1,Weakleys Fld,36.40527777777777,-87.0822222222222,,-3.78895
920,MI74,Wdiv-Tv Channel 4,42.32976027777778,-83.05353166666666,,-7.51752
921,22LA,Wd Flyers,30.997546111111113,-91.88109222222221,,-0.08675
922,20MA,Wcvb-Tv,42.30426388888888,-71.22727722222223,,-14.22087
923,5CO9,Wcdh,40.07639166666667,-102.23547777777777,,6.38681
924,12PN,Wcau,40.00733444444445,-75.2154575,,-11.93788
925,4NK0,Wca Hospital,42.092225,-79.23151944444443,,-10.05427
926,0MA6,Wbz,42.36509694444445,-71.13255277777778,,-14.27109
927,NC90,Wbtv,35.228753055555565,-80.86896055555555,,-7.84720
928,8NC5,Wb,35.406666666666666,-80.515,,-8.09688
929,MN37,Wayzata Bay Landing,44.95388888888889,-93.50388888888891,,0.25673
930,1K5,Waynoka Muni,36.5713,-98.85466388888888,,4.21394
931,TBN,Waynesville-St Robert Rgnl Forney Fld,37.741638888888886,-92.14072222222221,KTBN,-0.28647
932,2R0,Waynesboro Muni,31.64355388888889,-88.63509499999999,,-2.26348
933,3TN3,Wayne's World,36.263333333333335,-88.75722222222224,,-2.58670
934,4IL2,Wayne Ziller Jr,40.80836694444445,-88.54172444444444,,-3.20784
935,38U,Wayne Wonderland,38.36291472222222,-111.59598666666666,,10.60467
936,9MA8,Wayne West,41.84676972222223,-70.76087027777778,,-14.29711
937,6NJ3,Wayne Office Helistop,40.97926416666667,-74.25098027777777,,-12.61397
938,LCG,Wayne Muni/ Stan Morris Fld,42.24160575,-96.982271,KLCG,3.01811
939,0NC0,Wayne Meml Hospital Inc,35.398941666666666,-77.95447222222222,,-9.64352
940,39GA,Wayne Meml Hospital,31.601380555555558,-81.8985277777778,,-6.69575
941,7PA7,Wayne Meml Hospital,41.58983611111111,-75.26194444444444,,-12.23469
942,TN24,Wayne Medical Center,35.32551666666667,-87.75669166666668,,-3.20273
943,GWW,Wayne Exec Jetport,35.460555555555565,-77.96491666666667,KGWW,-9.64702
944,33NY,Wayne Delp,42.399527500000005,-73.86623777777777,,-13.10385
945,IA46,Wayne County Hospital,40.753980555555565,-93.31053333333332,,0.39041
946,30KY,Wayne County Hospital,36.81931666666667,-84.86768888888888,,-5.39571
947,EKQ,Wayne County,36.85527777777778,-84.85613888888888,KEKQ,-5.40836
948,BJJ,Wayne County,40.874833333333335,-81.88825000000001,KBJJ,-8.07186
949,37LA,Wayne Brown,31.727665000000002,-91.58289944444445,,-0.32204
950,AYS,Waycross-Ware County,31.24838888888889,-82.3953888888889,KAYS,-6.33358
951,50II,Way West,39.77365722222222,-86.75639555555556,,-4.41747
952,NY86,Waxwing,42.51257777777778,-74.11485666666665,,-13.01026
953,WA69,Wax Orchards,47.401255555555544,-122.49935,,15.42729
954,4IN9,Wawasee,41.41893666666667,-85.69165416666667,,-5.43489
955,10VG,Wavy Tv,36.82970277777778,-76.29834444444444,,-10.79893
956,C25,Waverly Muni,42.74179555555556,-92.50721333333334,,-0.35127
957,1GE9,Waverly Landing,32.71444444444445,-84.71805555555554,,-4.99779
958,Y50,Wautoma Muni,44.04313508333333,-89.30569052777777,,-3.01299
959,AUW,Wausau Downtown,44.926284527777774,-89.62700174999998,KAUW,-2.87357
960,WS75,Waupun Meml Hospital,43.63247913888889,-88.74639525,,-3.40247
961,WI07,Waupun,43.62221055555555,-88.76677444444445,,-3.38495
962,PCZ,Waupaca Muni,44.33325000000001,-89.01977777777779,KPCZ,-3.28117
963,6P3,Waunakee,43.17872222222222,-89.45127777777779,,-2.78720
964,Y01,Waukon Muni,43.280476111111106,-91.46952805555556,,-1.20821
965,6WI8,Waukesha Meml Hospital,43.01101166666667,-88.24281500000002,,-3.71397
966,UES,Waukesha County,43.04102777777778,-88.23705555555556,KUES,-3.72257
967,UGN,Waukegan Ntl,42.42214861111111,-87.86791611111109,KUGN,-3.92532
968,CHN,Wauchula Muni,27.51491666666667,-81.88047222222221,KCHN,-6.17621
969,O41,Watts-Woodland,38.673876388888885,-121.87207722222222,,13.35018
970,02MS,Watts Fld,34.10010694444445,-90.84677138888887,,-0.96113
971,2IL2,Watters,41.05336527777777,-88.46116972222221,,-3.29751
972,WVI,Watsonville Muni,36.93572222222222,-121.78963888888887,KWVI,12.96249
973,CL99,Watsonville Community Hospital,36.925191666666656,-121.792675,,12.96074
974,FL33,Watson Flight Strip,29.668292777777783,-82.82623222222222,,-5.85801
975,49FD,Watson Farm,30.61194444444445,-84.6416666666667,,-4.80209
976,3WA4,Watson,46.716530555555565,-118.61776805555556,,14.41147
977,JWG,Watonga Rgnl,35.864555555555555,-98.42075,KJWG,3.93451
978,5IA3,Watkins Private,40.84389166666667,-93.54271583333332,,0.55733
979,S25,Watford City Muni,47.79658333333333,-103.25519444444444,,7.51550
980,OH76,Waterwood,41.38921388888889,-82.45016722222222,,-7.77481
981,40C,Watervliet Muni,42.20072172222223,-86.24936555555556,,-5.13351
982,WVL,Waterville Robert Lafleur,44.53325,-69.67552777777779,KWVL,-15.31793
983,2S5,Waterville,47.656004444444434,-120.05646277777778,,14.98232
984,ATY,Watertown Rgnl,44.91397222222222,-97.15472222222223,KATY,3.09795
985,RYV,Watertown Muni,43.16963888888888,-88.72322222222222,KRYV,-3.35877
986,49WI,Watertown Medical Center,43.19992777777777,-88.69559444444445,,-3.38448
987,ART,Watertown Intl,43.99183333333333,-76.01941666666667,KART,-12.37649
988,7OK4,Waters Home,35.60798611111111,-98.63850833333332,,4.06104
989,OL10,Waters Boone,35.653055555555554,-98.60583333333332,,4.04234
990,FD62,Waters,27.78008333333333,-81.64327777777778,,-6.35774
991,MA97,Waters,42.12509583333333,-71.73979138888889,,-13.97789
992,37NE,Watermeier,40.60777805555556,-96.30778833333332,,2.56343
993,ALO,Waterloo Rgnl,42.558449166666655,-92.40102333333334,KALO,-0.41890
994,LS45,Waterford 3,29.98548166666667,-90.46730583333334,,-0.93004
995,KWF,Waterfall,55.296322777777775,-133.24333583333333,POKW,18.04758
996,23MT,Waterfall,45.65723333333333,-111.04033333333334,,11.55787
997,OXC,Waterbury-Oxford,41.478282,-73.13518669444446,KOXC,-13.24059
998,N41,Waterbury,41.633430277777784,-73.04677388888891,,-13.31346
999,33M,Water Valley Muni,34.16786111111111,-89.68488888888889,,-1.76131
1000,NC04,Watauga Medical Center,36.199295,-81.65149500000003,,-7.48491
1001,NH52,Waste,43.20508138888889,-71.48423694444446,,-14.32795
1002,TS32,Waskom,32.471155555555555,-94.05594444444445,,1.23645
1003,VWU,Waskish Muni,48.148455555555564,-94.51691527777778,KVWU,0.81301
1004,5L6,Wasilla Lake,61.58640611111112,-149.40749916666667,,15.55193
1005,05AK,Wasilla Creek Airpark,61.66865416666666,-149.18733333333333,,15.63733
1006,IYS,Wasilla,61.571986138888896,-149.53955669444446,PAWS,15.50358
1007,IIY,Washington-Wilkes County,33.77941666666666,-82.81583333333333,KIIY,-6.38948
1008,OCW,Washington-Warren,35.57047222222223,-77.04980555555555,KOCW,-10.18375
1009,4AR8,Washington Rgnl Landing,36.1082,-94.15876666666668,,1.18919
1010,FYG,Washington Rgnl,38.587583333333335,-90.99380555555555,KFYG,-1.17078
1011,DC01,Washington Post,38.90427833333333,-77.03442111111113,,-10.75176
1012,28LA,Washington Parish Fire Dist 7/Oep,30.78333333333333,-89.91666666666669,,-1.34644
1013,WA65,Washington Ntl Guard - Sinclair Hgts,47.55390277777778,-122.68243333333334,,15.49623
1014,AWG,Washington Muni,41.27569444444444,-91.67608333333334,KAWG,-0.87171
1015,2P2,Washington Island,45.38825458333334,-86.92404027777779,,-5.13059
1016,CL64,Washington Hospital Parking Structure,37.557472222222216,-121.97813888888888,,13.12705
1017,W32,Washington Exec/Hyde Fld,38.748261388888885,-76.93281694444445,,-10.78070
1018,IAD,Washington Dulles Intl,38.947444444444436,-77.45994444444446,KIAD,-10.51776
1019,K38,Washington County Veteran's Meml,39.735166666666665,-97.04758333333334,,3.08341
1020,58GA,Washington County Rgnl Medical Center,32.99651388888889,-82.80466388888887,,-6.29493
1021,3IA0,Washington County Hospital,41.289725,-91.68649166666668,,-0.86494
1022,2LL8,Washington County Hospital,38.33888888888889,-89.39222222222223,,-2.31991
1023,0NC3,Washington County Hospital,35.86199722222222,-76.72974444444445,,-10.40694
1024,8WC,Washington County,37.92919525,-90.73148402777778,,-1.31144
1025,AFJ,Washington County,40.13647222222223,-80.29019444444444,KAFJ,-9.00340
1026,WA94,Washington Air Museum,47.33398972222222,-122.02372583333332,,15.32342
1027,6MD9,Washington Adventist Hospital,38.985725,-77.00164166666667,,-10.78491
1028,5C8,Washburn Muni,47.35114888888889,-101.02589611111112,,5.95128
1029,62MO,Washburn Farm,39.06056194444445,-94.20328,,1.11774
1030,WY35,Washakie Medical Center,44.012205555555546,-107.94940277777779,,9.86850
1031,ACQ,Waseca Muni,44.07347222222222,-93.55294416666666,KACQ,0.36287
1032,L19,Wasco-Kern County,35.61986111111111,-119.35372222222222,,12.24210
1033,35S,Wasco State,45.58920416666667,-120.67398472222223,,14.64666
1034,WV43,Warwood - Martins Ferry,40.09312777777778,-80.71785888888887,,-8.71739
1035,N72,Warwick Muni,41.28759361111111,-74.28709472222222,,-12.66046
1036,4TA1,Warschun Ranch,33.30289444444444,-97.11140055555555,,3.11411
1037,ASW,Warsaw Muni,41.274694444444435,-85.84008333333333,KASW,-5.30288
1038,RAW,Warsaw Muni,38.34784722222223,-93.3453875,KRAW,0.53878
1039,RRT,Warroad Intl Meml,48.941472222222224,-95.3484722222222,KRRT,1.44577
1040,HWY,Warrenton-Fauquier,38.58627777777778,-77.71063888888891,KHWY,-10.30898
1041,7VG0,Warrenton Air Park,38.65567583333333,-77.78721527777778,,-10.27678
1042,0B7,Warren-Sugarbush,44.11738888888889,-72.827,,-13.98808
1043,NR84,Warren Recreational Complex,36.43448597222222,-78.12998930555554,,-9.70439
1044,ND42,Warren Pietsch,48.103055555555564,-101.07847222222222,,6.01029
1045,3M9,Warren Muni,33.56044333333333,-92.08538861111109,,-0.09361
1046,D37,Warren Muni,48.19116666666666,-96.71130555555555,,2.63083
1047,VA36,Warren Memorial Replacement Hospital,38.919377777777775,-78.15459166666669,,-10.10805
1048,5NJ7,Warren Hospital,40.70302777777777,-75.17816666666667,,-12.09462
1049,JY18,Warren Hopely,39.92833333333333,-74.76222222222222,,-12.15222
1050,NJ24,Warren Grove Range,39.713333333333345,-74.4,,-12.28986
1051,PA97,Warren General Hospital,41.844032222222225,-79.15467291666667,,-10.05220
1052,3GA3,Warren Fld,34.87111111111111,-85.4375,,-4.76363
1053,I68,Warren County/John Lane Fld,39.46217305555556,-84.25184713888889,,-6.19174
1054,NJ77,Warren County Public Safety Dept,40.740972222222226,-75.0215,,-12.18234
1055,RNC,Warren County Meml,35.698698888888885,-85.84382027777777,KRNC,-4.57916
1056,99OK,Warren Cat,35.464780833333336,-97.60420694444444,,3.42810
1057,7PA1,Warren Airpark,41.86589222222222,-79.20615777777778,,-10.02425
1058,3U1,Warren /Usfs/,45.268111111111104,-115.68361111111112,,13.24593
1059,PAQ,"Warren ""Bud"" Woods Palmer Muni",61.59491666666667,-149.08872222222226,PAAQ,15.66564
1060,62D,Warren,41.267027777777784,-80.92736111111111,,-8.79177
1061,23LA,Warner-Thunder Hill,30.630819444444448,-90.08019166666666,,-1.22815
1062,20OR,Warner's,45.325,-122.42416666666666,,14.92745
1063,4PA2,Warner-Lambert,40.152316944444436,-76.30579027777777,,-11.38869
1064,CL35,Warner Springs,33.28450277777777,-116.66965694444444,,11.20333
1065,5A2,Warner Robins Air Park,32.56063888888889,-83.67675,,-5.66887
1066,96CA,Warner Center Plaza One,34.178311111111114,-118.60022777777776,,11.79865
1067,AR47,Warner Brown Hospital,33.21386666666667,-92.66833888888891,,0.30989
1068,8OA6,Warner Airstrip,41.386163333333336,-82.89713416666667,,-7.46066
1069,0U1,Warm Springs Creek,44.14222222222222,-115.31405555555556,,12.90318
1070,6A5,Warf,36.32400000000001,-79.70933333333333,,-8.73766
1071,IS99,Ware-Wolf Lake,37.5075,-89.43888888888891,,-2.21085
1072,0WA5,Ware Mountain,48.379288888888894,-122.28848888888888,,15.62244
1073,01AL,Ware Island,32.94595611111111,-86.51386833333332,,-3.81616
1074,MA53,Ware,42.28203638888889,-72.21480166666667,,-13.81684
1075,MI15,Wards Long Acres,42.729198611111116,-82.66519416666667,,-7.86901
1076,7AR1,Ward's,33.050066666666666,-91.34073055555555,,-0.56114
1077,4MD2,Ward's,39.4298175,-79.453935,,-9.40876
1078,2S4,Warden,46.965815222222226,-119.06633172222222,,14.58311
1079,0O9,Ward Fld,41.845583333333344,-123.98477777777778,,14.38024
1080,NH20,Ward Fld,43.492298055555565,-71.64591,,-14.33227
1081,II27,Ward,40.166704444444434,-85.94081583333332,,-5.07046
1082,8OK1,Warbonnet,35.16833333333333,-97.71083333333334,,3.49070
1083,02OL,War Veterans Colony,34.811413888888886,-95.30771111111109,,1.97947
1084,15WV,War Meml Hospital,39.642925,-78.20100277777777,,-10.21115
1085,I45,Wapshilla,45.94184722222222,-116.76366944444445,,13.72104
1086,OR53,Wapinitia,45.14567305555556,-121.22895194444445,,14.66077
1087,43LA,Want's,32.74764305555556,-93.87222222222222,,1.11019
1088,1MA4,Wang,42.609258333333344,-71.32172694444444,,-14.25311
1089,24NY,Wang,40.88979166666667,-73.4916027777778,,-12.95508
1090,NY77,Wandervogel,42.71813111111111,-74.16346166666669,,-13.03340
1091,10SD,Wanblee Health Center,43.56383611111111,-101.66022222222223,,6.23013
1092,SN36,Wamsley Fld,37.42640805555556,-97.6378275,,3.46700
1093,27MA,Wamsetto,41.820555555555565,-71.1147222222222,,-14.15760
1094,69K,Wamego Muni,39.19785833333333,-96.25894027777778,,2.54943
1095,4KS,Walz,37.04516388888889,-98.57018055555555,,4.04952
1096,2NE8,Walvoord Fld,40.628702777777775,-96.56294444444444,,2.74201
1097,34PA,Waltz,39.76065333333333,-77.19303972222222,,-10.81961
1098,GA38,Walton Rgnl Medical Center,33.79999722222222,-83.74965277777778,,-5.77517
1099,87PA,Waltman,40.9264525,-79.73866083333334,,-9.50307
1100,MA76,Waltham Weston Hospital & Medical Center,42.36759611111111,-71.24811138888889,,-14.22700
1101,3O5,Walters Muni,34.37258444444444,-98.40588583333334,,3.89725
1102,42NY,Walter's Fld,42.669,-76.05616666666667,,-12.04826
1103,CN98,Walter's Camp,33.245555555555555,-114.71027777777779,,10.71103
1104,WN80,Walters Arv,46.09789083333334,-122.86538694444445,,15.18378
1105,WI28,Walter's Agri-Center,44.5861088888889,-87.55758972222222,,-4.48837
1106,0MD6,Walters,39.38121444444445,-77.10581416666666,,-10.79848
1107,WA79,Walter Sutton's Private Strip,45.933167222222224,-122.41787583333334,,15.06740
1108,60MD,Walter Reed Ntl Medical Center,38.99961666666667,-77.09565833333333,,-10.73448
1109,98ID,Walter Knox Meml Hospital,43.88062222222222,-116.48448888888888,,13.21264
1110,GBR,Walter J Koladza,42.184214166666656,-73.40324055555557,KGBR,-13.27206
1111,78KS,Walter A Swalley Airpark,37.0167325,-94.80022805555555,,1.59675
1112,0IL8,Walter,41.872529166666666,-88.72369555555555,,-3.19458
1113,13AZ,Waltenberry Fld,33.535,-112.85347222222221,,10.23838
1114,LA90,Walsh,30.46103388888889,-92.42624388888888,,0.28963
1115,97ND,Walser Strip,48.43082611111111,-97.70814333333334,,3.42666
1116,64IL,Walpole,42.241688611111115,-88.66676166666667,,-3.28386
1117,ARG,Walnut Ridge Rgnl,36.12466666666667,-90.92511111111112,KARG,-1.04337
1118,58VA,Walnut Hill,38.59512166666667,-77.64610083333334,,-10.34787
1119,19PN,Walnut Grove,40.09304444444445,-76.49313888888891,,-11.27460
1120,MU99,Walnut Glen Farm,38.02388888888889,-91.90208333333334,,-0.47440
1121,49IL,Walnut Creek,41.59333333333333,-88.69166666666668,,-3.18565
1122,1AR1,Walls,34.52717777777778,-91.87266388888888,,-0.28954
1123,NY19,Walls,43.043955,-76.46188083333334,,-11.90945
1124,WAL,Wallops Flight Facility,37.94019444444445,-75.46638888888889,KWAL,-11.42812
1125,8CA8,Wallom Fld,38.06735694444445,-121.20759555555556,,13.10430
1126,62AK,Wallis Lake Spb,61.572861111111116,-149.5747,,15.49108
1127,M86,Walle Fld,42.470972222222215,-86.12563888888889,,-5.26883
1128,64V,Wallace Muni,40.83222444444445,-101.16404472222223,,5.78447
1129,1IA4,Wallace Fld,41.055544444444436,-94.39468194444444,,1.17485
1130,58NH,Wallace,42.95533333333334,-71.09333333333333,,-14.42141
1131,ALW,Walla Walla Rgnl,46.09254166666667,-118.2840825,KALW,14.18539
1132,6V4,Wall Muni,43.99922222222222,-102.2535,,6.63270
1133,1ND4,Walkinshaw,47.05830611111111,-97.01702944444445,,2.92720
1134,4C2,Walker/Rowe Waterloo,41.43116138888889,-84.98163166666667,,-5.96288
1135,WV54,Walker Vi,37.771944444444436,-81.9327777777778,,-7.53400
1136,AL63,Walker Rgnl Medical Center,33.844005555555555,-87.23666388888887,,-3.41582
1137,Y49,Walker Muni,47.15948066666667,-94.64534669444444,,1.00536
1138,WV60,Walker Iii,37.748447777777784,-81.22232277777778,,-7.99850
1139,WV14,Walker I,38.227879444444454,-81.53289583333333,,-7.86984
1140,GA90,Walker Fld,33.45205833333333,-84.40936944444445,,-5.29194
1141,4IA2,Walker Fld,41.586134722222226,-91.2201575,,-1.24529
1142,MY35,Walker Fld,44.93110555555555,-92.8125222222222,,-0.29518
1143,JFX,Walker County-Bevill Fld,33.902,-87.31383333333332,KJFX,-3.36866
1144,VG35,Walker Army,37.016666666666666,-76.3,,-10.82911
1145,7MI7,Walker,42.38059361111111,-85.57750972222222,,-5.66929
1146,MO46,Walker,39.52032386111111,-91.17180788888888,,-1.11127
1147,OR57,Walker,43.868735,-123.03396972222221,,14.69613
1148,38XA,Walk-Air,32.408055555555556,-95.38944444444445,,2.07242
1149,96D,Walhalla Muni,48.94057319444444,-97.90277763888888,,3.56523
1150,TE92,Wales Air Fld,31.59439722222222,-97.370875,,3.26084
1151,IWK,Wales,65.62255555555555,-168.09497222222222,PAIW,7.29017
1152,ME6,Wales,44.174527777777776,-70.01894444444444,,-15.10937
1153,M27,Waldron Muni,34.876,-94.10888888888887,,1.19484
1154,NWL,Waldron Fld NOLF,27.635,-97.31222222222222,KNWL,3.23418
1155,90WA,Waldron Airstrip,48.71177,-123.01824194444444,,15.83322
1156,98ME,Waldo County General Hospital,44.413275,-68.99405277777778,,-15.50663
1157,45MO,Waldmeister Farm,38.84727333333333,-90.63901194444445,,-1.45062
1158,67ND,Waldie Farms,46.54330916666667,-98.38231694444444,,3.99608
1159,6TN0,Waldens Creek,35.79036749999999,-83.60683472222222,,-6.12757
1160,33V,Walden-Jackson County,40.750388888888885,-106.27152777777779,,8.64055
1161,27TS,Walden Ranch,33.01817527777778,-96.50693305555555,,2.74936
1162,MO58,Waldemer Flying W Ranch,36.658390000000004,-90.64039472222224,,-1.28212
1163,AA85,Walby Lake,61.61641944444445,-149.22103055555556,,15.62079
1164,2J0,Wakulla County,29.989455555555555,-84.39539166666667,,-4.88918
1165,R33,Wakonda Beach State,44.38456388888889,-124.08511944444444,,14.97520
1166,80NR,Wakemed North Hospital,35.90944444444445,-78.5975,,-9.34633
1167,04NC,Wakemed Cary Hospital,35.739263888888885,-78.78278333333333,,-9.20971
1168,9MO5,Wakefield Wings,37.0625,-93.09840277777779,,0.42455
1169,AKQ,Wakefield Muni,36.98722222222222,-77.00113888888889,KAKQ,-10.43922
1170,0NC4,Wake Medical Center,35.78601111111111,-78.588725,,-9.33233
1171,29M,Waite Fld,42.890719444444436,-83.93219444444446,,-6.98179
1172,AK03,Wainwright AS,70.61337777777777,-159.86034999999995,PAWT,11.04873
1173,AWI,Wainwright,70.638,-159.99474999999995,PAWI,10.97952
1174,19MA,Waine,41.28512305555555,-70.14973916666668,,-14.39882
1175,MUE,Waimea-Kohala,20.001326944444443,-155.6681072222222,PHMU,9.49045
1176,HI07,Waikoloa,19.913616388888887,-155.86388388888892,,9.47214
1177,AHQ,Wahoo Muni,41.24060805555556,-96.594555,KAHQ,2.75599
1178,1NK4,Wagstaff,40.68676611111111,-73.30428555555554,,-12.99949
1179,81OR,Wagontire,43.24987138888889,-119.87523972222222,,13.95309
1180,WY27,Wagonhound,42.586666666666666,-105.53833333333333,,8.45191
1181,87OK,Wagoner Community Hospital,35.961755555555555,-95.3914,,2.01405
1182,4OR8,Wagoner,44.848453611111104,-123.04148416666666,,14.92248
1183,AGZ,Wagner Muni,43.06416613888889,-98.29638208333333,KAGZ,3.94680
1184,OI06,Wagner Intl,39.99144194444445,-84.2916125,,-6.24241
1185,1TN3,Wagner Fld,35.13966666666666,-86.22216666666668,,-4.25283
1186,1PA4,Wagner,40.55257222222222,-77.61999166666666,,-10.72507
1187,TS43,Wagner,28.716378888888887,-96.21413333333334,,2.61890
1188,WI92,Wag-Aero,42.6611275,-88.36120527777777,,-3.57474
1189,47OI,Wadsworth-Rittman Hospital,41.02776944444445,-81.7506,,-8.19300
1190,3G3,Wadsworth Muni,41.00306111111111,-81.75652194444444,,-8.18455
1191,1AR7,Wadley Rgnl Medical Center At Hope,33.64845,-93.58503888888887,,0.89255
1192,64XS,Wadley Rgnl Medical Center,33.428844444444444,-94.04793333333332,,1.20063
1193,ADC,Wadena Muni,46.449945,-95.21083202777778,KADC,1.51733
1194,MS76,Wade Fld,33.77486944444444,-89.244775,,-2.03168
1195,6W0,Wade F Maley Fld,39.40611111111111,-80.27686111111113,,-8.88343
1196,56LL,Wade,41.75502944444445,-88.77119333333331,,-3.14391
1197,MS35,Wade,32.98123638888889,-90.96538111111113,,-0.80759
1198,ACT,Waco Rgnl,31.612194444444448,-97.23030555555556,KACT,3.17964
1199,1WF,Waco Fld,40.014794444444455,-84.19807916666667,,-6.31284
1200,MI80,Wabasis Lake,43.128362777777774,-85.39919166666667,,-5.92707
1201,IWH,Wabash Muni,40.76197222222222,-85.79875,KIWH,-5.25897
1202,67IS,Wabash General Hospital,38.42131111111111,-87.76990833333332,,-3.51359
1203,9MN2,Wabana,47.41038333333333,-93.52136833333331,,0.04784
1204,84TE,W4 Ranch,31.98806666666667,-97.54318055555555,,3.36233
1205,36AA,W. M. Thomas Pad,32.716836111111114,-87.749525,,-2.95630
1206,9PS7,W S  Lee & Sons Inc,40.447222222222216,-78.42888888888889,,-10.22501
1207,P99,W P H S,40.10810555555555,-79.54794166666666,,-9.47174
1208,8NC9,W N C  Air Museum,35.307222222222215,-82.43361111111112,,-6.84575
1209,SD57,W L Thompson,44.566646944444436,-100.75042277777777,,5.67137
1210,TA70,W J E,31.78350166666667,-95.8974625,,2.39132
1211,DBN,W H 'Bud' Barron,32.564722222222215,-82.98497222222224,KDBN,-6.12207
1212,0ID,W E Ranch,42.44818625,-111.77754305555555,,11.33430
1213,IL87,W Davis,41.71114194444445,-89.11231277777777,,-2.87653
1214,XS07,W D Cornelius Ranch,28.95025833333333,-96.05996027777779,,2.52776
1215,7XS3,W C Ranch,31.476566388888887,-95.63495305555556,,2.23763
1216,6X8,Vultures Row,33.34,-97.10305555555556,,3.10920
1217,VT88,Vtpad,44.058938888888896,-73.01948333333333,,-13.88771
1218,CO40,Vtol,39.742764444444454,-104.99359277777779,,7.88451
1219,1FL4,Vrs,27.81355,-82.68223333333334,,-5.71431
1220,2OK0,Vr Airstrip,34.656930555555554,-97.79248055555556,,3.53468
1221,9WN2,Voyager Village Airstrip,45.96661055555556,-92.14602111111112,,-0.94133
1222,WY29,Vowers Ranch,41.622196944444454,-104.78524499999999,,7.94958
1223,5CN4,Vosburgh Airfield,34.92363333333333,-119.5715,,12.14276
1224,NJ99,Vonage,40.34952777777778,-74.19058333333334,,-12.51582
1225,2KS8,Vonada,39.11372222222222,-98.40339444444444,,3.98077
1226,ND41,Voller,46.13471111111111,-100.1131697222222,,5.26932
1227,97IA,Volkens Fld,41.255833333333335,-95.47666666666667,,1.95598
1228,VOK,Volk Fld,43.9392375,-90.2531625,KVOK,-2.24338
1229,3MI1,Volare North,44.25053241666666,-85.72447322222223,,-5.87272
1230,GA51,Vogtle Electric Generating Plant,33.12543333333333,-81.74446111111111,,-6.99610
1231,IS41,Vogen Rla,41.460864444444454,-88.59201666666668,,-3.24614
1232,IS15,Vodden,42.03252722222222,-88.90259444444445,,-3.07593
1233,6NJ1,Vliet,40.74037722222222,-74.95683666666667,,-12.21505
1234,1MI8,Vlachos Acres,44.84667777777778,-83.636925,,-7.57963
1235,3F4,Vivian,32.86133333333333,-94.01015361111112,,1.19463
1236,8IS8,Vista Surgery Center,42.413041666666665,-88.05670277777777,,-3.77812
1237,7LL2,Vista Medical Center-East,42.3777,-87.83340277777779,,-3.94596
1238,7LL1,Vista Medical Center West,42.35911944444445,-87.86567777777779,,-3.91853
1239,2NV3,Vista Del Monte Lot 55,36.83781130555555,-114.05043763888888,,11.15828
1240,T66,Visnaw Lake,61.619011111111114,-149.6785611111111,,15.45778
1241,0OK2,Viskup Family Fld,36.610555555555564,-96.09805555555555,,2.46919
1242,VIS,Visalia Muni,36.31863888888889,-119.39286111111113,KVIS,12.39281
1243,85NJ,Virtua-Voorhees Hospital,39.84691944444445,-74.92699999999999,,-12.05371
1244,Y51,Viroqua Muni,43.5796388888889,-90.89772222222223,,-1.69013
1245,BCB,Virginia Tech/Montgomery Exec,37.20938666666667,-80.41209,KBCB,-8.43562
1246,VJI,Virginia Highlands,36.687102527777775,-82.03332669444444,KVJI,-7.30548
1247,IA78,Virginia Gay Hospital,42.174486111111115,-92.0122,,-0.68768
1248,7VA7,Virginia Dmv Headquarters,37.561388888888885,-77.46222222222222,,-10.27510
1249,56VA,Virginia Beach Muni,36.750983055555565,-76.05826527777778,,-10.91477
1250,2VA7,Virginia Beach General Hospital,36.86686111111111,-76.02357777777777,,-10.95246
1251,42VA,Virginia Beach,36.678904166666655,-76.03277638888889,,-10.91646
1252,BFR,Virgil I Grissom Muni,38.840027777777784,-86.44536111111111,KBFR,-4.52768
1253,NY39,Virgil Excavation,43.130555555555546,-77.73361111111113,,-11.19592
1254,2GE6,Virgil,31.5954,-84.42315833333333,,-5.06096
1255,4GE1,Viola Farm,30.72375,-84.54111111111109,,-4.88088
1256,VTI,Vinton Veterans Meml Airpark,42.21863888888889,-92.02591666666666,KVTI,-0.68073
1257,22I,Vinton County,39.328125,-82.44182166666667,,-7.43381
1258,3GA9,Vintage Fld,33.13345555555556,-84.37742277777777,,-5.27483
1259,TN17,Vintage Fld,35.582296388888885,-84.487985,,-5.50100
1260,76KS,Vintage Fld,38.090673611111114,-97.20258333333334,,3.18810
1261,K64,Vinland Valley Aerodrome,38.83613055555556,-95.18203611111113,,1.81277
1262,H04,Vinita Muni,36.614616277777785,-95.15169477777779,,1.84271
1263,ND68,Vining,46.955808055555565,-97.3012,,3.15431
1264,CN15,Vineyard Oaks Farm,36.36816388888889,-119.78499444444445,,12.48100
1265,OR95,Vineyard,45.04983944444446,-123.23454694444445,,15.00040
1266,28N,Vineland-Downstown,39.53958333333333,-74.96766666666667,,-11.97442
1267,4NJ6,Vineland Veterans Home,39.495115555555564,-75.03073138888887,,-11.93406
1268,70KY,Vine Grove,37.81590055555555,-85.96468527777779,,-4.74697
1269,MT80,Vine,48.04307277777777,-105.60888833333333,,9.04184
1270,7AK9,Vinduska,61.646830555555546,-149.04853888888888,,15.68444
1271,FA60,Vince's Condominium Association,27.238935555555557,-81.38590611111111,,-6.44569
1272,26CN,Vincent Substation,34.48675,-118.11589722222222,,11.75813
1273,7MD4,Vinayaka Missions America University,39.59916666666667,-77.7638888888889,,-10.46062
1274,ME55,Vinalhaven,44.07277777777777,-68.81963888888889,,-15.47400
1275,9IL0,Villiger Rla,41.09448055555556,-89.3862002777778,,-2.59828
1276,PR29,Villamil-Mayaguez Mall,18.158888888888892,-67.14638888888891,,-12.93814
1277,12PR,Villamil-304 Ponce De Leon,18.422633333333334,-66.057025,,-13.39875
1278,32IL,Village of Tamms,37.23888888888889,-89.26583333333332,,-2.31162
1279,0TN2,Village,35.65591222222222,-84.18546972222222,,-5.71699
1280,PR26,Villa Marina,18.331341944444443,-65.63293916666666,,-13.56254
1281,1FA9,Villa Char Mar,27.785,-81.65111111111112,,-6.35353
1282,76WI,Viking Gas Transmission Company,45.31246333333333,-92.58909111111109,,-0.51136
1283,AA04,Viking,61.224775,-149.83909444444444,,15.36650
1284,94NC,Viking,35.009610555555554,-79.26003333333334,,-8.81215
1285,1TA2,Vigo Park,34.650059166666665,-101.50045,,5.65350
1286,SD72,Vig Ranch Airfield,44.859497222222224,-102.57661111111109,,6.88917
1287,1SD4,Vig Limousin,44.870069444444454,-102.41407777777779,,6.78536
1288,WS67,Vietmeier,46.799933888888894,-91.20851833333332,,-1.82288
1289,8FA7,Viera Hospital,28.226777777777773,-80.73097222222222,,-6.97767
1290,IL61,Vienna Correctional Center,37.39755194444445,-88.77422527777777,,-2.68027
1291,NR25,Vidant Multispecialty Clinic,35.55027777777777,-76.6238888888889,,-10.41571
1292,NC91,Vidant Health,35.608744444444454,-77.40715277777778,,-9.98913
1293,50NR,Vidant Edgecombe Hospital,35.92222222222222,-77.55472222222222,,-9.95470
1294,8NC0,Vidant Bertie Hospital,35.98865833333333,-76.92923888888889,,-10.31693
1295,VDI,Vidalia Rgnl,32.192722222222216,-82.37116666666667,KVDI,-6.47116
1296,2OA4,Victory Fld,39.9318,-83.9075,,-6.50714
1297,0AK6,Victory,61.80337444444446,-147.94415333333333,,16.08198
1298,0OI6,Victor's Landing,41.83811,-80.64368944444446,,-9.08898
1299,VCT,Victoria Rgnl,28.85420583333333,-96.91873222222223,KVCT,3.01060
1300,69CA,Victor Valley Global Medical Center,34.52777777777778,-117.29277777777777,,11.58394
1301,1ME1,Victor,44.41063888888889,-69.00919444444446,,-15.50125
1302,TVR,Vicksburg Tallulah Rgnl,32.35161111111111,-91.02768872222221,KTVR,-0.72543
1303,VKS,Vicksburg Muni,32.23913888888889,-90.92819444444444,KVKS,-0.78400
1304,5O1,Vici Muni,36.141055555555546,-99.30336111111109,,4.47280
1305,PS15,Vicars Private,40.54756861111111,-78.39168083333334,,-10.26662
1306,MO84,Viburnum,37.71671277777778,-91.13346722222221,,-1.00607
1307,22KS,Via Christi Rgnl Med Ctr-St Francis Campus,37.69837222222222,-97.33195555555555,,3.27136
1308,SN50,Via Christi Hospital,37.379827777777784,-94.68551944444445,,1.50894
1309,18FL,"Vft, LLC",26.70738888888889,-80.66169444444445,,-6.81812
1310,37OR,Vey Sheep Ranch,45.09318666666667,-118.39883888888887,,13.99830
1311,51CL,Vetters Sky Ranch,38.230471666666666,-121.22216861111113,,13.14173
1312,73WI,Vetterkind Strip,45.24051722222222,-91.50877333333334,,-1.38196
1313,96WI,Vette/Blust,43.941096388888894,-88.49372388888891,,-3.64573
1314,MWA,Veterans Airport of Southern Illinois,37.75497222222222,-89.01108333333332,KMWA,-2.54286
1315,04TE,Veterans Affairs Medical Center,29.699713888888887,-95.39067777777778,,2.12648
1316,48PA,Veterans,40.58737222222222,-76.54353888888889,,-11.34327
1317,37AL,Veterans,33.603836111111114,-86.30294722222222,,-4.02938
1318,43IL,Vertiport Chicago,41.862141666666666,-87.67026111111113,,-4.00216
1319,7AR2,Verser's Landing,35.55719999999999,-92.1321,,-0.16907
1320,AZ70,Versatile,34.627246388888885,-112.30905416666668,,10.24824
1321,9TN1,Versailles Aerodrome,35.73000000000001,-86.53777777777779,,-4.09847
1322,39K,Versaair Services,38.69172222222222,-95.69016666666668,,2.16708
1323,20KY,Verona Landing,38.81694444444445,-84.67111111111113,,-5.80097
1324,W19,Verona,42.98946666666666,-89.50947777777779,,-2.71842
1325,VRB,Vero Beach Rgnl,27.655555555555555,-80.41794444444443,KVRB,-7.09224
1326,05S,Vernonia Muni,45.85210625,-123.24286930555556,,15.18875
1327,NA22,Vernon Miller Pvt,46.012502222222224,-103.79631361111109,,7.74089
1328,VEL,Vernal Rgnl,40.43607777777777,-109.51142250000001,KVEL,10.10067
1329,21CN,Vermont Corridor County Admin Ehlf,34.06451944444444,-118.29127222222222,,11.71193
1330,OH79,Vermilion Township,41.40222222222222,-82.36666666666666,,-7.83532
1331,DNV,Vermilion Rgnl,40.19982722222222,-87.59516638888887,KDNV,-3.84771
1332,64NJ,Verizon - Cdc Ii,40.238166666666665,-74.31986944444444,,-12.43107
1333,JY34,Verizon - Basking Ridge,40.66667222222222,-74.63334166666667,,-12.36247
1334,VT28,Vergennes Armory,44.170888055555544,-73.24678888888889,,-13.81292
1335,95CL,Verdugo Hills Hospital,34.20413611111111,-118.21730277777776,,11.72394
1336,75TS,Venus,32.41638888888889,-97.09194444444445,,3.10035
1337,OK27,Venture Aerodrome Airpark Nr 2,35.43564583333333,-94.47493805555555,,1.42068
1338,NC66,Ventosa Plantation,36.13126722222222,-77.29579944444444,,-10.13467
1339,VG53,Venning's Landing,37.04361111111111,-79.80138888888888,,-8.79327
1340,46LS,Venissat Airstrip,30.086111111111112,-92.53222222222222,,0.37579
1341,VNC,Venice Muni,27.071267777777773,-82.4400325,KVNC,-5.77082
1342,30LA,Venice Base Heliport & Spb,29.27111111111111,-89.35583333333332,,-1.58959
1343,VEE,Venetie,67.008675,-146.36635833333332,PAVE,17.02742
1344,SC93,Venesky Air,34.808611111111105,-82.59138888888889,,-6.67380
1345,OR52,Venell,44.473455,-123.30259944444445,,14.87793
1346,FKL,Venango Rgnl,41.37741666666667,-79.8606388888889,KFKL,-9.51129
1347,5XA9,Venable Airpark,33.33829444444444,-96.99654444444445,,3.04509
1348,MN95,Velo Airstrip,46.511070277777776,-96.19200472222221,,2.29801
1349,VT16,Velco,43.659789444444435,-72.99288527777777,,-13.80115
1350,9PN7,Veit,41.81813027777778,-76.41271722222223,,-11.66748
1351,0MO3,Veach Fld,38.624925,-94.52165833333332,,1.35783
1352,VG45,Vcu Health System-Main Hosp Helipad,37.53973611111111,-77.4294,,-10.29016
1353,8VA0,Vcu Health System-I Lot,37.547916666666666,-77.4304,,-10.29097
1354,99VA,Vcu Health New Kent Ed,37.505520000000004,-77.187832,,-10.42126
1355,4TA2,V-Bar,31.74225,-97.31986111111112,,3.23188
1356,N17,Vaughn Muni,34.60458027777778,-105.19182194444444,,7.48931
1357,XS76,Vaughn Farm,34.51086111111111,-101.8165972222222,,5.81385
1358,AL69,Vaughn,30.50852861111111,-87.4916475,,-2.91688
1359,AL90,Vaughan Rgnl Medical Center,32.428669444444445,-87.05701111111111,,-3.39602
1360,WN13,Vaughan Ranch Airfield,47.46370777777778,-122.56902138888887,,15.45462
1361,TA89,Vaughan Ranch,31.52377388888889,-98.80032555555556,,4.06641
1362,00VA,Vaughan,36.576,-78.99916666666667,,-9.21077
1363,29RI,Vaucluse Farm,41.54222222222222,-71.2361111111111,,-14.05079
1364,2MI8,Vassar Fld,43.34335666666667,-83.53523388888887,,-7.35697
1365,01NY,Vassar Brothers Medical Center,41.691780555555546,-73.93589444444444,,-12.91533
1366,NY60,Vasile Fld,44.762540555555546,-73.55930416666666,,-13.81998
1367,2S1,Vashon Muni,47.458588611111104,-122.47697194444444,,15.43688
1368,JY08,Var-Sky,39.65011388888889,-75.28407638888889,,-11.83394
1369,74TA,Varnell,30.234452777777783,-98.17124722222222,,3.70149
1370,5TA7,Varnell,30.18213055555556,-97.96098611111113,,3.58556
1371,13TE,Varisco,30.656031944444447,-96.53830138888887,,2.78124
1372,3LA7,Variable Bor Ram,30.076752777777774,-91.94896944444444,,0.00928
1373,7CO6,Vantage View,38.76027777777778,-104.10138888888888,,7.32821
1374,9N1,Vansant,40.484269722222216,-75.0996161111111,,-12.09099
1375,MU39,Van's,37.22088111111111,-93.13851555555556,,0.44523
1376,44KS,Vankirk,37.6109675,-97.16373375,,3.16170
1377,5GA1,Vanguard Landing,33.20916666666667,-81.92916666666667,,-6.88907
1378,CA73,Vanderford Ranch Company,39.09572583333333,-121.71635722222223,,13.41473
1379,TN35,Vanderbilt University Medical Center,36.141794444444436,-86.8016,,-3.95851
1380,SD74,Vander Wal Private,45.99554972222222,-100.37623527777777,,5.45353
1381,VBG,Vandenberg AFB,34.737336666666664,-120.58431255555556,KVBG,12.29180
1382,VLA,Vandalia Muni,38.991465833333336,-89.16618944444444,KVLA,-2.54791
1383,MU71,Vandahl,39.34921388888889,-94.85788611111109,,1.57128
1384,TE76,Vance Fld,33.36845277777777,-97.68625555555555,,3.45725
1385,LMO,Vance Brand,40.16438888888889,-105.16363888888891,KLMO,8.01349
1386,END,Vance AFB,36.339805833333344,-97.91723944444445,KEND,3.63203
1387,76F,Van Zandt County Rgnl,32.681416666666664,-95.98413888888888,,2.43353
1388,VNW,Van Wert County,40.86382947222222,-84.606358,KVNW,-6.14902
1389,6H4,Van Wagnen,42.15576388888889,-84.33431944444446,,-6.55750
1390,57CN,Van Vleck,38.469075833333335,-121.07522194444445,,13.16617
1391,0CO9,Van Treese,37.658334444444435,-106.03391333333332,,8.19109
1392,26MI,Van Strien,42.92392,-85.37807305555555,,-5.90866
1393,7TN8,Van Stratum,35.9775,-83.22638888888889,,-6.40943
1394,9CO2,Van Slyke Fld,39.696096666666655,-104.47579638888891,,7.60816
1395,0P1,Van Pak,39.83169444444445,-99.56844444444445,,4.74555
1396,43L,Van Nuys County Court,34.18333333333333,-118.44666666666667,,11.76792
1397,VNY,Van Nuys,34.209805555555555,-118.4899722222222,KVNY,11.78217
1398,2MN6,Van Norman's,44.04718583333333,-92.09294,,-0.78851
